DATE,TIME,BOROUGH,ZIP CODE,LATITUDE,LONGITUDE,LOCATION,ON STREET NAME,CROSS STREET NAME,OFF STREET NAME,NUMBER OF PERSONS INJURED,NUMBER OF PERSONS KILLED,NUMBER OF PEDESTRIANS INJURED,NUMBER OF PEDESTRIANS KILLED,NUMBER OF CYCLISTS INJURED,NUMBER OF CYCLISTS KILLED,CONTRIBUTING FACTOR VEHICLE 1,CONTRIBUTING FACTOR VEHICLE 2,CONTRIBUTING FACTOR VEHICLE 3,CONTRIBUTING FACTOR VEHICLE 4,CONTRIBUTING FACTOR VEHICLE 5,VEHICLE TYPE CODE 1,VEHICLE TYPE CODE 2,VEHICLE TYPE CODE 3,VEHICLE TYPE CODE 4,VEHICLE TYPE CODE 5
11/10/2016,16:11:00,BROOKLYN,11208.0,40.66251389999999,-73.8720068,"(40.6625139, -73.8720068)",WORTMAN AVENUE,MONTAUK AVENUE,,0,0,0,0,,,Failure to Yield Right-of-Way,Unspecified,,,,TAXI,PASSENGER VEHICLE,,,
11/10/2016,05:11:00,MANHATTAN,10013.0,40.7213228,-74.0083444,"(40.7213228, -74.0083444)",HUBERT STREET,HUDSON STREET,,1,0,1,0,,,Failure to Yield Right-of-Way,,,,,PASSENGER VEHICLE,,,,
04/16/2016,09:15:00,BROOKLYN,11201.0,40.6879989,-73.9975625,"(40.6879989, -73.9975625)",HENRY STREET,WARREN STREET,,0,0,0,0,,,Lost Consciousness,Lost Consciousness,,,,PASSENGER VEHICLE,VAN,,,
04/15/2016,10:20:00,QUEENS,11375.0,40.7192276,-73.8545422,"(40.7192276, -73.8545422)",,,67-64 FLEET STREET,0,0,0,0,,,Failure to Yield Right-of-Way,Failure to Yield Right-of-Way,Failure to Yield Right-of-Way,,,PASSENGER VEHICLE,PASSENGER VEHICLE,PASSENGER VEHICLE,,
04/15/2016,10:35:00,BROOKLYN,11210.0,40.6321467,-73.9527315,"(40.6321467, -73.9527315)",BEDFORD AVENUE,CAMPUS ROAD,,0,0,0,0,,,Failure to Yield Right-of-Way,Failure to Yield Right-of-Way,,,,PASSENGER VEHICLE,PASSENGER VEHICLE,,,
04/15/2016,10:50:00,MANHATTAN,10023.0,40.7793641,-73.9773678,"(40.7793641, -73.9773678)",COLUMBUS AVENUE,WEST 75 STREET,,0,0,0,0,,,Failure to Yield Right-of-Way,Failure to Yield Right-of-Way,,,,PASSENGER VEHICLE,PASSENGER VEHICLE,,,
11/10/2016,20:11:00,BRONX,10471.0,40.8975679,-73.8969612,"(40.8975679, -73.8969612)",,,6253      BROADWAY,0,0,0,0,,,Failure to Yield Right-of-Way,Unsafe Speed,,,,PASSENGER VEHICLE,PASSENGER VEHICLE,,,
04/15/2016,11:30:00,QUEENS,11434.0,40.6596509,-73.7738282,"(40.6596509, -73.7738282)",ROCKAWAY BOULEVARD,FARMERS BOULEVARD,,0,0,0,0,,,Failure to Yield Right-of-Way,Failure to Yield Right-of-Way,,,,PASSENGER VEHICLE,PASSENGER VEHICLE,,,
04/15/2016,12:00:00,BROOKLYN,11238.0,40.6772855,-73.9625453,"(40.6772855, -73.9625453)",GRAND AVENUE,SAINT MARKS AVENUE,,1,0,0,0,,,Lost Consciousness,Lost Consciousness,,,,MOTORCYCLE,,,,
04/15/2016,12:50:00,QUEENS,11411.0,40.7009644,-73.732433,"(40.7009644, -73.732433)",114 ROAD,225 STREET,,1,0,0,0,,,Failure to Yield Right-of-Way,Failure to Yield Right-of-Way,,,,PASSENGER VEHICLE,PASSENGER VEHICLE,,,
11/10/2016,20:11:00,STATEN ISLAND,10312.0,40.5342669,-74.15397349999998,"(40.5342669, -74.1539735)",RICHMOND AVENUE,HYLAN BOULEVARD,,1,0,0,0,,,Failure to Yield Right-of-Way,Unspecified,,,,PASSENGER VEHICLE,PASSENGER VEHICLE,,,
04/15/2016,13:15:00,BROOKLYN,11222.0,40.7272955,-73.9558065,"(40.7272955, -73.9558065)",CALYER STREET,CLIFFORD PLACE,,0,0,0,0,,,Failure to Yield Right-of-Way,Failure to Yield Right-of-Way,,,,PASSENGER VEHICLE,PASSENGER VEHICLE,,,
04/15/2016,13:50:00,QUEENS,11356.0,40.7786169,-73.83886109999997,"(40.7786169, -73.8388611)",130 STREET,23 AVENUE,,0,0,0,0,,,Failure to Yield Right-of-Way,Failure to Yield Right-of-Way,,,,PASSENGER VEHICLE,PASSENGER VEHICLE,,,
04/15/2016,14:55:00,BROOKLYN,11206.0,40.6997084,-73.9571664,"(40.6997084, -73.9571664)",WALLABOUT STREET,BEDFORD AVENUE,,0,0,0,0,,,Lost Consciousness,Lost Consciousness,,,,PASSENGER VEHICLE,,,,
04/15/2016,15:00:00,QUEENS,11377.0,40.7574437,-73.9088261,"(40.7574437, -73.9088261)",,,50-06 31 AVENUE,1,0,1,0,,,Failure to Yield Right-of-Way,,,,,PASSENGER VEHICLE,,,,
04/15/2016,15:40:00,BRONX,10467.0,40.88744620000001,-73.8780005,"(40.8874462, -73.8780005)",JEROME AVENUE,BAINBRIDGE AVENUE,,0,0,0,0,,,Failure to Yield Right-of-Way,Failure to Yield Right-of-Way,,,,PASSENGER VEHICLE,PASSENGER VEHICLE,,,
04/15/2016,16:00:00,BRONX,10472.0,40.82765560000001,-73.8860957,"(40.8276556, -73.8860957)",WESTCHESTER AVENUE,WHITLOCK AVENUE,,0,0,0,0,,,Failure to Yield Right-of-Way,Failure to Yield Right-of-Way,,,,PASSENGER VEHICLE,PASSENGER VEHICLE,,,
11/10/2016,06:11:00,QUEENS,11420.0,40.6803265,-73.82897109999998,"(40.6803265, -73.8289711)",111 STREET,109 AVENUE,,1,0,1,0,,,Failure to Yield Right-of-Way,,,,,PICK-UP TRUCK,,,,
04/15/2016,16:03:00,MANHATTAN,10013.0,40.7225499,-74.006299,"(40.7225499, -74.006299)",CANAL STREET,VARICK STREET,,3,0,0,0,,,Failure to Yield Right-of-Way,Failure to Yield Right-of-Way,,,,PASSENGER VEHICLE,,,,
04/15/2016,17:00:00,BRONX,10458.0,40.8571285,-73.88079259999998,"(40.8571285, -73.8807926)",EAST FORDHAM ROAD,SOUTHERN BOULEVARD,,0,0,0,0,,,Failure to Yield Right-of-Way,Failure to Yield Right-of-Way,,,,PASSENGER VEHICLE,PASSENGER VEHICLE,,,
04/15/2016,17:00:00,BROOKLYN,11214.0,40.6072584,-74.0026435,"(40.6072584, -74.0026435)",86 STREET,18 AVENUE,,0,0,0,0,,,Failure to Yield Right-of-Way,Failure to Yield Right-of-Way,,,,PASSENGER VEHICLE,SMALL COM VEH(4 TIRES),,,
04/15/2016,17:00:00,QUEENS,11378.0,40.72591970000001,-73.8953397,"(40.7259197, -73.8953397)",GRAND AVENUE,69 STREET,,0,0,0,0,,,Failure to Yield Right-of-Way,Failure to Yield Right-of-Way,,,,PASSENGER VEHICLE,PASSENGER VEHICLE,,,
11/10/2016,09:11:00,BRONX,10472.0,40.82691629999999,-73.8720302,"(40.8269163, -73.8720302)",METCALF AVENUE,WATSON AVENUE,,1,0,1,0,,,Failure to Yield Right-of-Way,,,,,,,,,
11/10/2016,09:11:00,BROOKLYN,11214.0,40.6072584,-74.0026435,"(40.6072584, -74.0026435)",18 AVENUE,86 STREET,,1,0,1,0,,,Failure to Yield Right-of-Way,,,,,SPORT UTILITY / STATION WAGON,,,,
11/10/2016,09:11:00,BROOKLYN,11229.0,40.5946391,-73.95270040000003,"(40.5946391, -73.9527004)",AVENUE W,EAST 18 STREET,,1,0,0,0,,,Failure to Yield Right-of-Way,Unspecified,,,,PASSENGER VEHICLE,SPORT UTILITY / STATION WAGON,,,
04/15/2016,18:10:00,MANHATTAN,10022.0,40.7591654,-73.976743,"(40.7591654, -73.976743)",5 AVENUE,WEST 51 STREET,,0,0,0,0,,,Failure to Yield Right-of-Way,Failure to Yield Right-of-Way,,,,OTHER,PASSENGER VEHICLE,,,
04/15/2016,18:25:00,BROOKLYN,11204.0,40.6151303,-73.99422259999999,"(40.6151303, -73.9942226)",72 STREET,18 AVENUE,,0,0,0,0,,,Failure to Yield Right-of-Way,Failure to Yield Right-of-Way,,,,PASSENGER VEHICLE,PASSENGER VEHICLE,,,
04/07/2016,15:27:00,BRONX,10460.0,40.8367349,-73.8858308,"(40.8367349, -73.8858308)",,,961 EAST 174 STREET,0,0,0,0,,,Failure to Yield Right-of-Way,Failure to Yield Right-of-Way,,,,PASSENGER VEHICLE,PASSENGER VEHICLE,,,
04/15/2016,20:15:00,BROOKLYN,11225.0,40.6631828,-73.96244870000002,"(40.6631828, -73.9624487)",EMPIRE BOULEVARD,FLATBUSH AVENUE,,1,0,1,0,,,Failure to Yield Right-of-Way,,,,,PASSENGER VEHICLE,,,,
03/13/2016,19:24:00,QUEENS,11413.0,40.6825066,-73.7399958,"(40.6825066, -73.7399958)",130 AVENUE,227 STREET,,0,0,0,0,,,Failure to Yield Right-of-Way,Failure to Yield Right-of-Way,Failure to Yield Right-of-Way,,,PASSENGER VEHICLE,PASSENGER VEHICLE,,,
03/13/2016,19:35:00,QUEENS,11354.0,40.7631605,-73.8163873,"(40.7631605, -73.8163873)",149 STREET,ROOSEVELT AVENUE,,1,0,1,0,,,Failure to Yield Right-of-Way,,,,,SPORT UTILITY / STATION WAGON,,,,
04/15/2016,21:00:00,QUEENS,11365.0,40.7467748,-73.7924146,"(40.7467748, -73.7924146)",UTOPIA PARKWAY,UNDERHILL AVENUE,,1,0,0,0,,,Failure to Yield Right-of-Way,Failure to Yield Right-of-Way,,,,PASSENGER VEHICLE,PASSENGER VEHICLE,,,
04/15/2016,21:07:00,QUEENS,11364.0,40.755658,-73.76716390000001,"(40.755658, -73.7671639)",48 AVENUE,BELL BOULEVARD,,1,0,0,0,,,Failure to Yield Right-of-Way,Failure to Yield Right-of-Way,,,,PASSENGER VEHICLE,PASSENGER VEHICLE,,,
04/15/2016,21:47:00,BROOKLYN,11217.0,40.6848568,-73.9780417,"(40.6848568, -73.9780417)",FLATBUSH AVENUE,4 AVENUE,,0,0,0,0,,,Lost Consciousness,Lost Consciousness,,,,PASSENGER VEHICLE,PASSENGER VEHICLE,,,
04/15/2016,22:12:00,QUEENS,11377.0,40.7348498,-73.9000093,"(40.7348498, -73.9000093)",65 PLACE,MAURICE AVENUE,,0,0,0,0,,,Failure to Yield Right-of-Way,Failure to Yield Right-of-Way,,,,PASSENGER VEHICLE,PASSENGER VEHICLE,,,
11/09/2016,11:11:00,BROOKLYN,11214.0,40.5951044,-74.00090379999997,"(40.5951044, -74.0009038)",,,8973      BAY PARKWAY,0,0,0,0,,,Failure to Yield Right-of-Way,Unspecified,,,,PASSENGER VEHICLE,PASSENGER VEHICLE,,,
04/15/2016,02:50:00,BROOKLYN,11225.0,40.6616893,-73.96142950000002,"(40.6616893, -73.9614295)",FLATBUSH AVENUE,LEFFERTS AVENUE,,0,0,0,0,,,Failure to Yield Right-of-Way,Failure to Yield Right-of-Way,,,,PASSENGER VEHICLE,PASSENGER VEHICLE,,,
04/15/2016,03:52:00,BRONX,10466.0,40.89285220000001,-73.85566329999997,"(40.8928522, -73.8556633)",EAST 233 STREET,BYRON AVENUE,,0,0,0,0,,,Failure to Yield Right-of-Way,Failure to Yield Right-of-Way,,,,OTHER,,,,
04/15/2016,05:50:00,QUEENS,11368.0,40.742096,-73.86747290000002,"(40.742096, -73.8674729)",CORONA AVENUE,JUNCTION BOULEVARD,,1,0,1,0,,,Failure to Yield Right-of-Way,,,,,PASSENGER VEHICLE,,,,
11/09/2016,15:11:00,QUEENS,11354.0,40.7574508,-73.83405390000001,"(40.7574508, -73.8340539)",,,40-24     COLLEGE POINT BOULEVARD,0,0,0,0,,,Failure to Yield Right-of-Way,Unspecified,,,,PASSENGER VEHICLE,,,,
04/15/2016,07:00:00,BRONX,10452.0,40.84517750000001,-73.9141598,"(40.8451775, -73.9141598)",JEROME AVENUE,CROSS BRONX EXPRESSWAY,,1,0,0,0,,,Failure to Yield Right-of-Way,Failure to Yield Right-of-Way,,,,PASSENGER VEHICLE,,,,
04/15/2016,07:45:00,BRONX,10463.0,40.8795157,-73.9096784,"(40.8795157, -73.9096784)",TIBBETT AVENUE,WEST 230 STREET,,1,0,0,0,,,Failure to Yield Right-of-Way,Failure to Yield Right-of-Way,,,,PASSENGER VEHICLE,PASSENGER VEHICLE,,,
04/15/2016,07:58:00,MANHATTAN,10001.0,40.7447605,-73.9951533,"(40.7447605, -73.9951533)",7 AVENUE,WEST 24 STREET,,0,0,0,0,,,Lost Consciousness,Lost Consciousness,,,,PASSENGER VEHICLE,PASSENGER VEHICLE,,,
04/15/2016,08:00:00,BROOKLYN,11229.0,40.6044444,-73.94847270000002,"(40.6044444, -73.9484727)",AVENUE S,EAST 24 STREET,,0,0,0,0,,,Failure to Yield Right-of-Way,Failure to Yield Right-of-Way,,,,PASSENGER VEHICLE,PASSENGER VEHICLE,,,
04/15/2016,08:30:00,MANHATTAN,10022.0,40.7583082,-73.9629257,"(40.7583082, -73.9629257)",EAST 57 STREET,1 AVENUE,,0,0,0,0,,,Failure to Yield Right-of-Way,,,,,PASSENGER VEHICLE,,,,
04/15/2016,08:45:00,MANHATTAN,10016.0,40.7513709,-73.97988570000003,"(40.7513709, -73.9798857)",,,30 EAST 40 STREET,0,0,0,0,,,Failure to Yield Right-of-Way,Failure to Yield Right-of-Way,,,,,,,,
11/09/2016,16:11:00,,,40.733379600000006,-73.8666495,"(40.7333796, -73.8666495)",,,,0,0,0,0,,,Failure to Yield Right-of-Way,Unspecified,,,,SPORT UTILITY / STATION WAGON,PASSENGER VEHICLE,,,
04/15/2016,09:00:00,QUEENS,11365.0,40.7304548,-73.805166,"(40.7304548, -73.805166)",164 STREET,71 AVENUE,,1,0,1,0,,,Failure to Yield Right-of-Way,,,,,PASSENGER VEHICLE,,,,
04/14/2016,10:41:00,QUEENS,11378.0,40.72538770000001,-73.9088266,"(40.7253877, -73.9088266)",59 STREET,56 AVENUE,,0,0,0,0,,,Lost Consciousness,Lost Consciousness,,,,PASSENGER VEHICLE,PASSENGER VEHICLE,,,
11/09/2016,17:11:00,MANHATTAN,10032.0,40.8401945,-73.9430642,"(40.8401945, -73.9430642)",WEST 165 STREET,FORT WASHINGTON AVENUE,,0,0,0,0,,,Failure to Yield Right-of-Way,Unspecified,Unspecified,,,PASSENGER VEHICLE,PASSENGER VEHICLE,SPORT UTILITY / STATION WAGON,,
04/14/2016,11:45:00,QUEENS,11354.0,40.7604644,-73.8265417,"(40.7604644, -73.8265417)",ROOSEVELT AVENUE,UNION STREET,,0,0,0,0,,,Failure to Yield Right-of-Way,Failure to Yield Right-of-Way,,,,PASSENGER VEHICLE,PASSENGER VEHICLE,,,
04/14/2016,12:00:00,BROOKLYN,11238.0,40.6776646,-73.9558646,"(40.6776646, -73.9558646)",,,1035 DEAN STREET,0,0,0,0,,,Failure to Yield Right-of-Way,Failure to Yield Right-of-Way,,,,PASSENGER VEHICLE,PASSENGER VEHICLE,,,
11/09/2016,18:11:00,BROOKLYN,11207.0,40.6632221,-73.8936503,"(40.6632221, -73.8936503)",PENNSYLVANIA AVENUE,RIVERDALE AVENUE,,0,0,0,0,,,Failure to Yield Right-of-Way,Unspecified,,,,SPORT UTILITY / STATION WAGON,PASSENGER VEHICLE,,,
11/09/2016,18:11:00,QUEENS,11358.0,40.75387050000001,-73.79732659999998,"(40.7538705, -73.7973266)",46 AVENUE,170 STREET,,0,0,0,0,,,Failure to Yield Right-of-Way,Unspecified,,,,SPORT UTILITY / STATION WAGON,SPORT UTILITY / STATION WAGON,,,
04/14/2016,14:00:00,MANHATTAN,10011.0,40.74164520000001,-74.00486090000003,"(40.7416452, -74.0048609)",WEST 15 STREET,9 AVENUE,,0,0,0,0,,,Lost Consciousness,Lost Consciousness,,,,PASSENGER VEHICLE,,,,
04/14/2016,14:05:00,STATEN ISLAND,10305.0,40.6204307,-74.0709552,"(40.6204307, -74.0709552)",EDGEWATER STREET,BAY STREET,,0,0,0,0,,,Lost Consciousness,Lost Consciousness,,,,PASSENGER VEHICLE,PASSENGER VEHICLE,,,
04/14/2016,14:30:00,QUEENS,11375.0,40.7157398,-73.83672609999998,"(40.7157398, -73.8367261)",AUSTIN STREET,76 ROAD,,1,0,1,0,,,Failure to Yield Right-of-Way,,,,,PASSENGER VEHICLE,,,,
04/14/2016,14:30:00,QUEENS,11434.0,40.6596509,-73.7738282,"(40.6596509, -73.7738282)",FARMERS BOULEVARD,ROCKAWAY BOULEVARD,,1,0,0,0,,,Failure to Yield Right-of-Way,Failure to Yield Right-of-Way,,,,PASSENGER VEHICLE,PASSENGER VEHICLE,,,
04/14/2016,15:00:00,BROOKLYN,11204.0,40.6189755,-73.99035,"(40.6189755, -73.99035)",,,6516 18 AVENUE,0,0,0,0,,,Lost Consciousness,Lost Consciousness,,,,PASSENGER VEHICLE,PASSENGER VEHICLE,,,
11/09/2016,18:11:00,BROOKLYN,11206.0,40.7015443,-73.93836429999998,"(40.7015443, -73.9383643)",FLUSHING AVENUE,GARDEN STREET,,1,0,0,0,,,Failure to Yield Right-of-Way,Driver Inattention/Distraction,,,,BICYCLE,BICYCLE,,,
11/09/2016,18:11:00,BROOKLYN,11234.0,40.6287705,-73.9182425,"(40.6287705, -73.9182425)",RALPH AVENUE,AVENUE J,,1,0,1,0,,,Failure to Yield Right-of-Way,,,,,SPORT UTILITY / STATION WAGON,,,,
11/09/2016,18:11:00,QUEENS,11435.0,40.7088729,-73.8187046,"(40.7088729, -73.8187046)",QUEENS BOULEVARD,84 DRIVE,,1,0,0,0,,,Failure to Yield Right-of-Way,Unspecified,,,,SPORT UTILITY / STATION WAGON,PASSENGER VEHICLE,,,
04/14/2016,15:00:00,MANHATTAN,10016.0,40.745004,-73.9861635,"(40.745004, -73.9861635)",,,10 EAST 29 STREET,0,0,0,0,,,Lost Consciousness,Lost Consciousness,,,,PASSENGER VEHICLE,PASSENGER VEHICLE,,,
04/14/2016,15:10:00,,,40.8246654,-73.8707949,"(40.8246654, -73.8707949)",METCALF AVENUE,,,0,0,0,0,,,Lost Consciousness,Lost Consciousness,,,,PASSENGER VEHICLE,VAN,,,
04/14/2016,15:50:00,BROOKLYN,11214.0,40.608746,-74.0034863,"(40.608746, -74.0034863)",BAY 16 STREET,85 STREET,,0,0,0,0,,,Failure to Yield Right-of-Way,Failure to Yield Right-of-Way,,,,PASSENGER VEHICLE,PASSENGER VEHICLE,,,
04/14/2016,15:50:00,BROOKLYN,11249.0,40.718415500000006,-73.9616204,"(40.7184155, -73.9616204)",WYTHE AVE,NORTH 5 STREET,,1,0,0,0,,,Failure to Yield Right-of-Way,Failure to Yield Right-of-Way,,,,PASSENGER VEHICLE,BICYCLE,,,
11/07/2016,09:11:00,BROOKLYN,11233.0,40.6772496,-73.92753859999998,"(40.6772496, -73.9275386)",ATLANTIC AVENUE,ROCHESTER AVENUE,,1,0,1,0,,,Failure to Yield Right-of-Way,,,,,PASSENGER VEHICLE,,,,
04/14/2016,16:20:00,BROOKLYN,11207.0,40.6653448,-73.9008524,"(40.6653448, -73.9008524)",VAN SINDEREN AVENUE,DUMONT AVENUE,,0,0,0,0,,,Failure to Yield Right-of-Way,Failure to Yield Right-of-Way,,,,PASSENGER VEHICLE,PASSENGER VEHICLE,,,
04/14/2016,16:25:00,MANHATTAN,10002.0,40.71406870000001,-73.99750379999998,"(40.7140687, -73.9975038)",DIVISION STREET,BOWERY,,0,0,0,0,,,Lost Consciousness,Lost Consciousness,,,,PASSENGER VEHICLE,PASSENGER VEHICLE,,,
04/14/2016,17:02:00,QUEENS,11416.0,40.6881494,-73.8488335,"(40.6881494, -73.8488335)",WOODHAVEN BOULEVARD,ATLANTIC AVENUE,,2,0,0,0,,,Failure to Yield Right-of-Way,Failure to Yield Right-of-Way,,,,PASSENGER VEHICLE,PASSENGER VEHICLE,,,
04/14/2016,17:34:00,STATEN ISLAND,10304.0,40.6292849,-74.0838801,"(40.6292849, -74.0838801)",OCCIDENT AVENUE,MARION AVENUE,,0,0,0,0,,,Failure to Yield Right-of-Way,Failure to Yield Right-of-Way,,,,PASSENGER VEHICLE,PASSENGER VEHICLE,,,
04/14/2016,17:40:00,MANHATTAN,10034.0,40.8625298,-73.91831309999998,"(40.8625298, -73.9183131)",,,403 WEST 205 STREET,0,0,0,0,,,Lost Consciousness,Lost Consciousness,,,,PASSENGER VEHICLE,PASSENGER VEHICLE,,,
04/14/2016,18:04:00,BROOKLYN,11249.0,40.7168461,-73.96332029999998,"(40.7168461, -73.9633203)",,,268 WYTHE AVENUE,0,0,0,0,,,Failure to Yield Right-of-Way,Failure to Yield Right-of-Way,,,,PASSENGER VEHICLE,PASSENGER VEHICLE,,,
04/14/2016,19:10:00,STATEN ISLAND,10312.0,40.53989779999999,-74.1610238,"(40.5398978, -74.1610238)",RICHMOND AVE,SYCAMORE STREET,,0,0,0,0,,,Failure to Yield Right-of-Way,Failure to Yield Right-of-Way,,,,PASSENGER VEHICLE,PASSENGER VEHICLE,,,
04/14/2016,19:15:00,QUEENS,11375.0,40.7182128,-73.8367417,"(40.7182128, -73.8367417)",QUEENS BOULEVARD,75 ROAD,,0,0,0,0,,,Lost Consciousness,Lost Consciousness,,,,PASSENGER VEHICLE,PASSENGER VEHICLE,,,
11/09/2016,06:11:00,BRONX,10474.0,40.8120773,-73.8868051,"(40.8120773, -73.8868051)",COSTER STREET,RANDALL AVENUE,,1,0,1,0,,,Failure to Yield Right-of-Way,,,,,TAXI,,,,
11/09/2016,06:11:00,BROOKLYN,11234.0,40.6250313,-73.92948299999998,"(40.6250313, -73.929483)",FLATLANDS AVENUE,EAST 48 STREET,,1,0,0,0,,,Failure to Yield Right-of-Way,Unspecified,,,,PASSENGER VEHICLE,SPORT UTILITY / STATION WAGON,,,
04/14/2016,19:20:00,MANHATTAN,10011.0,40.7428639,-74.0039696,"(40.7428639, -74.0039696)",9 AVENUE,WEST 17 STREET,,0,0,0,0,,,Lost Consciousness,Lost Consciousness,,,,PASSENGER VEHICLE,,,,
04/14/2016,21:40:00,,,40.7384947,-73.9027329,"(40.7384947, -73.9027329)",,,,0,0,0,0,,,Lost Consciousness,Lost Consciousness,,,,PASSENGER VEHICLE,OTHER,,,
04/14/2016,21:40:00,MANHATTAN,10013.0,40.7171234,-74.00795790000002,"(40.7171234, -74.0079579)",WEST BROADWAY,THOMAS STREET,,1,0,1,0,,,Failure to Yield Right-of-Way,,,,,PASSENGER VEHICLE,,,,
11/05/2016,12:11:00,BROOKLYN,11207.0,40.6757357,-73.89685329999998,"(40.6757357, -73.8968533)",PENNSYLVANIA AVENUE,ATLANTIC AVENUE,,0,0,0,0,,,Failure to Yield Right-of-Way,Unspecified,,,,PASSENGER VEHICLE,SPORT UTILITY / STATION WAGON,,,
04/14/2016,06:35:00,BROOKLYN,11225.0,40.6631828,-73.96244870000002,"(40.6631828, -73.9624487)",FLATBUSH AVENUE,EMPIRE BOULEVARD,,0,0,0,0,,,Lost Consciousness,Lost Consciousness,,,,PASSENGER VEHICLE,OTHER,,,
04/14/2016,06:50:00,QUEENS,11416.0,40.6859236,-73.84691670000002,"(40.6859236, -73.8469167)",WOODHAVEN BOULEVARD,97 AVENUE,,0,0,0,0,,,Lost Consciousness,Lost Consciousness,,,,PASSENGER VEHICLE,,,,
04/14/2016,07:00:00,QUEENS,11357.0,40.7819506,-73.8044593,"(40.7819506, -73.8044593)",,,157-36 18 AVENUE,0,0,0,0,,,Failure to Yield Right-of-Way,Failure to Yield Right-of-Way,,,,PASSENGER VEHICLE,PASSENGER VEHICLE,,,
04/14/2016,07:05:00,QUEENS,11106.0,40.7581273,-73.92850109999998,"(40.7581273, -73.9285011)",35 AVENUE,31 STREET,,1,0,0,0,,,Lost Consciousness,Lost Consciousness,,,,PASSENGER VEHICLE,,,,
04/14/2016,07:26:00,,,40.6076884,-74.13891640000001,"(40.6076884, -74.1389164)",WOOLLEY AVENUE,,,2,0,0,0,,,Lost Consciousness,Lost Consciousness,Lost Consciousness,,,MOTORCYCLE,PASSENGER VEHICLE,PASSENGER VEHICLE,,
04/14/2016,08:00:00,QUEENS,11361.0,40.7569079,-73.7676685,"(40.7569079, -73.7676685)",47 AVENUE,BELL BOULEVARD,,0,0,0,0,,,Failure to Yield Right-of-Way,Failure to Yield Right-of-Way,,,,PASSENGER VEHICLE,PASSENGER VEHICLE,,,
04/14/2016,08:10:00,BRONX,10451.0,40.825456,-73.9131663,"(40.825456, -73.9131663)",EAST 163 STREET,MELROSE AVENUE,,1,0,1,0,,,Failure to Yield Right-of-Way,,,,,PASSENGER VEHICLE,,,,
04/14/2016,08:30:00,QUEENS,11413.0,40.677928,-73.7548493,"(40.677928, -73.7548493)",SPRINGFIELD BOULEVARD,136 AVENUE,,0,0,0,0,,,Failure to Yield Right-of-Way,Failure to Yield Right-of-Way,,,,PASSENGER VEHICLE,PASSENGER VEHICLE,,,
04/14/2016,08:40:00,QUEENS,11362.0,40.7687955,-73.73707399999998,"(40.7687955, -73.737074)",NORTHERN BOULEVARD,251 STREET,,0,0,0,0,,,Failure to Yield Right-of-Way,Failure to Yield Right-of-Way,,,,PASSENGER VEHICLE,PASSENGER VEHICLE,,,
04/14/2016,08:40:00,,,40.6665019,-73.9961894,"(40.6665019, -73.9961894)",PROSPECT EXPRESSWAY,,,0,0,0,0,,,Lost Consciousness,Lost Consciousness,,,,PASSENGER VEHICLE,SMALL COM VEH(4 TIRES),,,
04/14/2016,08:50:00,QUEENS,11372.0,40.7476308,-73.88393719999998,"(40.7476308, -73.8839372)",ROOSEVELT AVENUE,82 STREET,,0,0,0,0,,,Failure to Yield Right-of-Way,,,,,PASSENGER VEHICLE,,,,
04/14/2016,09:01:00,BROOKLYN,11213.0,40.6656874,-73.93975999999998,"(40.6656874, -73.93976)",CROWN STREET,ALBANY AVENUE,,0,0,0,0,,,Lost Consciousness,Lost Consciousness,,,,PASSENGER VEHICLE,OTHER,,,
04/14/2016,09:15:00,QUEENS,11422.0,40.6656299,-73.7392073,"(40.6656299, -73.7392073)",BROOKVILLE BOULEVARD,SUNRISE HIGHWAY,,0,0,0,0,,,Failure to Yield Right-of-Way,Failure to Yield Right-of-Way,,,,PASSENGER VEHICLE,PASSENGER VEHICLE,,,
04/14/2016,09:50:00,MANHATTAN,10035.0,40.8040657,-73.93266340000002,"(40.8040657, -73.9326634)",2 AV,E 127 ST,,0,0,0,0,,,Failure to Yield Right-of-Way,Failure to Yield Right-of-Way,,,,PASSENGER VEHICLE,PASSENGER VEHICLE,,,
04/13/2016,00:30:00,QUEENS,11418.0,40.6898733,-73.84281130000002,"(40.6898733, -73.8428113)",102 STREET,ATLANTIC AVENUE,,0,0,0,0,,,Failure to Yield Right-of-Way,Failure to Yield Right-of-Way,,,,PASSENGER VEHICLE,PASSENGER VEHICLE,,,
04/13/2016,10:00:00,MANHATTAN,10007.0,40.7130009,-74.0041807,"(40.7130009, -74.0041807)",,,1 CENTRE STREET,0,0,0,0,,,Failure to Yield Right-of-Way,Failure to Yield Right-of-Way,,,,PASSENGER VEHICLE,PASSENGER VEHICLE,,,
04/13/2016,10:15:00,MANHATTAN,10031.0,40.8314708,-73.9467684,"(40.8314708, -73.9467684)",BROADWAY,WEST 153 STREET,,0,0,0,0,,,Lost Consciousness,Lost Consciousness,,,,PASSENGER VEHICLE,PASSENGER VEHICLE,,,
04/13/2016,10:20:00,BROOKLYN,11201.0,40.6898305,-73.97862420000001,"(40.6898305, -73.9786242)",DE KALB AVENUE,ASHLAND PLACE,,1,0,0,0,,,Failure to Yield Right-of-Way,Failure to Yield Right-of-Way,,,,PASSENGER VEHICLE,BICYCLE,,,
11/08/2016,12:11:00,QUEENS,11432.0,40.7117666,-73.7900997,"(40.7117666, -73.7900997)",,,172-01    HILLSIDE AVENUE,1,0,1,0,,,Failure to Yield Right-of-Way,,,,,SPORT UTILITY / STATION WAGON,,,,
04/13/2016,11:15:00,BROOKLYN,11221.0,40.6904835,-73.939532,"(40.6904835, -73.939532)",MARCUS GARVEY BOULEVARD,VAN BUREN STREET,,0,0,0,0,,,Failure to Yield Right-of-Way,Failure to Yield Right-of-Way,,,,PASSENGER VEHICLE,PASSENGER VEHICLE,,,
04/13/2016,11:30:00,BRONX,10451.0,40.8176833,-73.9297449,"(40.8176833, -73.9297449)",GERARD AVENUE,EAST 146 STREET,,0,0,0,0,,,Failure to Yield Right-of-Way,Failure to Yield Right-of-Way,,,,PASSENGER VEHICLE,PASSENGER VEHICLE,,,
04/13/2016,11:56:00,STATEN ISLAND,10312.0,40.5404466,-74.1649971,"(40.5404466, -74.1649971)",OAKDALE STREET,PRESTON AVENUE,,4,0,0,0,,,Failure to Yield Right-of-Way,Failure to Yield Right-of-Way,,,,PASSENGER VEHICLE,PASSENGER VEHICLE,,,
04/13/2016,12:30:00,MANHATTAN,10039.0,40.8284993,-73.9377806,"(40.8284993, -73.9377806)",8 AVENUE,WEST 154 STREET,,1,0,0,0,,,Failure to Yield Right-of-Way,,,,,PASSENGER VEHICLE,,,,
04/13/2016,12:30:00,STATEN ISLAND,10304.0,40.627166,-74.0759411,"(40.627166, -74.0759411)",BAY STREET,WATER STREET,,1,0,0,0,,,Lost Consciousness,Lost Consciousness,,,,PASSENGER VEHICLE,BICYCLE,,,
04/13/2016,13:00:00,BROOKLYN,11235.0,40.5861291,-73.9501034,"(40.5861291, -73.9501034)",VOORHIES AVENUE,EAST 19 STREET,,0,0,0,0,,,Failure to Yield Right-of-Way,Failure to Yield Right-of-Way,,,,PASSENGER VEHICLE,PASSENGER VEHICLE,,,
11/08/2016,14:11:00,BROOKLYN,11210.0,40.6274006,-73.94028809999998,"(40.6274006, -73.9402881)",AVENUE J,EAST 37 STREET,,1,0,0,0,,,Failure to Yield Right-of-Way,Unspecified,,,,PASSENGER VEHICLE,PASSENGER VEHICLE,,,
04/13/2016,13:10:00,MANHATTAN,10022.0,40.7580073,-73.9662395,"(40.7580073, -73.9662395)",EAST 55 STREET,2 AVENUE,,0,0,0,0,,,Failure to Yield Right-of-Way,Failure to Yield Right-of-Way,,,,SMALL COM VEH(4 TIRES),PASSENGER VEHICLE,,,
04/13/2016,13:15:00,BROOKLYN,11206.0,40.6928249,-73.9451878,"(40.6928249, -73.9451878)",,,152 PULASKI STREET,0,0,0,0,,,Lost Consciousness,Lost Consciousness,,,,PASSENGER VEHICLE,PASSENGER VEHICLE,,,
04/13/2016,13:30:00,BROOKLYN,11223.0,40.5978331,-73.965485,"(40.5978331, -73.965485)",OCEAN PARKWAY,AVENUE U,,0,0,0,0,,,Failure to Yield Right-of-Way,Failure to Yield Right-of-Way,,,,PASSENGER VEHICLE,PASSENGER VEHICLE,,,
04/13/2016,13:30:00,MANHATTAN,10017.0,40.7522355,-73.9797122,"(40.7522355, -73.9797122)",,,300 MADISON AVENUE,0,0,0,0,,,Failure to Yield Right-of-Way,Failure to Yield Right-of-Way,,,,PASSENGER VEHICLE,SMALL COM VEH(4 TIRES),,,
04/13/2016,13:30:00,QUEENS,11354.0,40.7627471,-73.8332862,"(40.7627471, -73.8332862)",NORTHERN BOULEVARD,PRINCE STREET,,0,0,0,0,,,Failure to Yield Right-of-Way,Failure to Yield Right-of-Way,,,,PASSENGER VEHICLE,PASSENGER VEHICLE,,,
04/13/2016,13:43:00,BRONX,10457.0,40.8475785,-73.90632059999999,"(40.8475785, -73.9063206)",EAST 176 STREET,MONROE AVENUE,,0,0,0,0,,,Failure to Yield Right-of-Way,Failure to Yield Right-of-Way,,,,PASSENGER VEHICLE,PASSENGER VEHICLE,,,
04/13/2016,13:50:00,MANHATTAN,10016.0,40.7466142,-73.97955879999998,"(40.7466142, -73.9795588)",,,243 LEXINGTON AVENUE,0,0,0,0,,,Failure to Yield Right-of-Way,Failure to Yield Right-of-Way,,,,PASSENGER VEHICLE,SMALL COM VEH(4 TIRES),,,
04/13/2016,13:50:00,STATEN ISLAND,10312.0,40.5404466,-74.1649971,"(40.5404466, -74.1649971)",OAKDALE STREET,PRESTON AVENUE,,0,0,0,0,,,Failure to Yield Right-of-Way,Failure to Yield Right-of-Way,,,,PASSENGER VEHICLE,PASSENGER VEHICLE,,,
11/08/2016,16:11:00,QUEENS,11413.0,40.675214200000006,-73.73779259999998,"(40.6752142, -73.7377926)",232 STREET,MERRICK BOULEVARD,,0,0,0,0,,,Failure to Yield Right-of-Way,Unspecified,,,,SPORT UTILITY / STATION WAGON,BICYCLE,,,
11/08/2016,16:11:00,BROOKLYN,11205.0,40.6920474,-73.9641814,"(40.6920474, -73.9641814)",,,195       WILLOUGHBY AVENUE,1,0,0,0,,,Failure to Yield Right-of-Way,Unspecified,,,,PASSENGER VEHICLE,BICYCLE,,,
11/08/2016,16:11:00,QUEENS,11379.0,40.7194601,-73.8911615,"(40.7194601, -73.8911615)",69 STREET,ELIOT AVENUE,,2,0,0,0,,,Failure to Yield Right-of-Way,Unspecified,,,,PASSENGER VEHICLE,PASSENGER VEHICLE,,,
04/13/2016,14:25:00,BROOKLYN,11207.0,40.6585778,-73.89062290000003,"(40.6585778, -73.8906229)",LINDEN BOULEVARD,PENNSYLVANIA AVENUE,,2,0,0,0,,,Failure to Yield Right-of-Way,Failure to Yield Right-of-Way,,,,PASSENGER VEHICLE,,,,
04/13/2016,15:15:00,MANHATTAN,10024.0,40.7872228,-73.9679255,"(40.7872228, -73.9679255)",CENTRAL PARK WEST,WEST 89 STREET,,0,0,0,0,,,Failure to Yield Right-of-Way,Failure to Yield Right-of-Way,,,,PASSENGER VEHICLE,PASSENGER VEHICLE,,,
04/13/2016,15:50:00,QUEENS,11101.0,40.753996,-73.9424305,"(40.753996, -73.9424305)",21 STREET,41 AVENUE,,0,0,0,0,,,Failure to Yield Right-of-Way,Failure to Yield Right-of-Way,,,,PASSENGER VEHICLE,PASSENGER VEHICLE,,,
04/13/2016,16:30:00,BRONX,10456.0,40.829413,-73.9194883,"(40.829413, -73.9194883)",,,1011 SHERIDAN AVENUE,0,0,0,0,,,Lost Consciousness,Lost Consciousness,,,,PASSENGER VEHICLE,,,,
04/13/2016,16:40:00,BROOKLYN,11226.0,40.6501171,-73.9607803,"(40.6501171, -73.9607803)",,,2011 CHURCH AVENUE,0,0,0,0,,,Failure to Yield Right-of-Way,Failure to Yield Right-of-Way,,,,PASSENGER VEHICLE,PASSENGER VEHICLE,,,
04/13/2016,16:45:00,BROOKLYN,11214.0,40.5985519,-73.9973389,"(40.5985519, -73.9973389)",BAY PARKWAY,BATH AVENUE,,0,0,0,0,,,Failure to Yield Right-of-Way,Failure to Yield Right-of-Way,,,,PASSENGER VEHICLE,PASSENGER VEHICLE,,,
04/13/2016,17:00:00,BROOKLYN,11235.0,40.5902941,-73.9528583,"(40.5902941, -73.9528583)",AVENUE Y,EAST 17 STREET,,0,0,0,0,,,Lost Consciousness,Lost Consciousness,,,,PASSENGER VEHICLE,PASSENGER VEHICLE,,,
04/13/2016,17:00:00,MANHATTAN,10014.0,40.7423751,-74.00879090000002,"(40.7423751, -74.0087909)",11 AVENUE,WEST 14 STREET,,0,0,0,0,,,Failure to Yield Right-of-Way,Failure to Yield Right-of-Way,,,,PASSENGER VEHICLE,PASSENGER VEHICLE,,,
04/13/2016,17:10:00,BROOKLYN,11201.0,40.696131,-73.9871041,"(40.696131, -73.9871041)",TILLARY STREET,JAY STREET,,0,0,0,0,,,Lost Consciousness,Lost Consciousness,,,,PASSENGER VEHICLE,PASSENGER VEHICLE,,,
04/13/2016,18:00:00,BROOKLYN,11203.0,40.6572811,-73.9473543,"(40.6572811, -73.9473543)",NEW YORK AVENUE,WINTHROP STREET,,0,0,0,0,,,Failure to Yield Right-of-Way,Failure to Yield Right-of-Way,,,,PASSENGER VEHICLE,PASSENGER VEHICLE,,,
04/13/2016,18:00:00,BROOKLYN,11229.0,40.6086739,-73.95439040000002,"(40.6086739, -73.9543904)",QUENTIN ROAD,EAST 19 STREET,,0,0,0,0,,,Lost Consciousness,Lost Consciousness,,,,PASSENGER VEHICLE,PASSENGER VEHICLE,,,
04/13/2016,18:30:00,BROOKLYN,11206.0,40.7006025,-73.9430031,"(40.7006025, -73.9430031)",,,741 FLUSHING AVENUE,1,0,0,0,,,Failure to Yield Right-of-Way,Failure to Yield Right-of-Way,,,,MOTORCYCLE,PASSENGER VEHICLE,,,
11/08/2016,19:11:00,STATEN ISLAND,10312.0,40.5540863,-74.1927507,"(40.5540863, -74.1927507)",ARDEN AVENUE,NEDRA LANE,,0,0,0,0,,,Failure to Yield Right-of-Way,Unspecified,,,,SPORT UTILITY / STATION WAGON,BICYCLE,,,
04/13/2016,18:35:00,BROOKLYN,11208.0,40.6799921,-73.8844767,"(40.6799921, -73.8844767)",,,2986 FULTON STREET,0,0,0,0,,,Failure to Yield Right-of-Way,Failure to Yield Right-of-Way,,,,PASSENGER VEHICLE,PASSENGER VEHICLE,,,
04/13/2016,19:15:00,BROOKLYN,11229.0,40.6091307,-73.95740450000002,"(40.6091307, -73.9574045)",KINGS HIGHWAY,EAST 16 STREET,,0,0,0,0,,,Lost Consciousness,Lost Consciousness,,,,PASSENGER VEHICLE,PASSENGER VEHICLE,,,
04/13/2016,19:30:00,BRONX,10454.0,40.8045949,-73.9190488,"(40.8045949, -73.9190488)",MAJOR DEEGAN EXPRESSWAY,SAINT ANNS AVENUE,,0,0,0,0,,,Lost Consciousness,Lost Consciousness,,,,PASSENGER VEHICLE,PASSENGER VEHICLE,,,
04/13/2016,19:30:00,MANHATTAN,10029.0,40.7892055,-73.95481559999998,"(40.7892055, -73.9548156)",5 AVENUE,EAST 98 STREET,,0,0,0,0,,,Failure to Yield Right-of-Way,Failure to Yield Right-of-Way,,,,PASSENGER VEHICLE,AMBULANCE,,,
04/13/2016,19:30:00,STATEN ISLAND,10305.0,40.5842015,-74.09471040000003,"(40.5842015, -74.0947104)",HYLAN BOULEVARD,NAUGHTON AVENUE,,0,0,0,0,,,Lost Consciousness,Lost Consciousness,,,,PASSENGER VEHICLE,MOTORCYCLE,,,
04/13/2016,19:50:00,BROOKLYN,11239.0,40.6492737,-73.8725692,"(40.6492737, -73.8725692)",,,339 GATEWAY DRIVE,0,0,0,0,,,Failure to Yield Right-of-Way,Failure to Yield Right-of-Way,,,,PASSENGER VEHICLE,PASSENGER VEHICLE,,,
04/13/2016,20:15:00,BROOKLYN,11215.0,40.6652149,-73.9763324,"(40.6652149, -73.9763324)",PROSPECT PARK WEST,8 STREET,,0,0,0,0,,,Lost Consciousness,Lost Consciousness,,,,PASSENGER VEHICLE,PASSENGER VEHICLE,,,
11/08/2016,07:11:00,QUEENS,11365.0,40.7454305,-73.7837935,"(40.7454305, -73.7837935)",56 AVENUE,194 STREET,,0,0,0,0,,,Failure to Yield Right-of-Way,Unspecified,,,,SPORT UTILITY / STATION WAGON,SPORT UTILITY / STATION WAGON,,,
04/13/2016,06:30:00,BROOKLYN,11236.0,40.6488172,-73.9092916,"(40.6488172, -73.9092916)",AVENUE D,EAST 95 STREET,,0,0,0,0,,,Failure to Yield Right-of-Way,Failure to Yield Right-of-Way,,,,PASSENGER VEHICLE,PASSENGER VEHICLE,,,
04/13/2016,07:15:00,QUEENS,11355.0,40.7523184,-73.8323919,"(40.7523184, -73.8323919)",AVERY AVENUE,COLLEGE POINT BOULEVARD,,0,0,0,0,,,Failure to Yield Right-of-Way,Failure to Yield Right-of-Way,,,,PASSENGER VEHICLE,PASSENGER VEHICLE,,,
04/13/2016,08:00:00,BROOKLYN,11207.0,40.6756735,-73.8978448,"(40.6756735, -73.8978448)",ATLANTIC AVENUE,SHEFFIELD AVENUE,,0,0,0,0,,,Lost Consciousness,Lost Consciousness,,,,SMALL COM VEH(4 TIRES),PASSENGER VEHICLE,,,
04/13/2016,08:10:00,BROOKLYN,11214.0,40.5995208,-73.9987504,"(40.5995208, -73.9987504)",BATH AVENUE,BAY 28 STREET,,0,0,0,0,,,Failure to Yield Right-of-Way,Failure to Yield Right-of-Way,,,,PASSENGER VEHICLE,PASSENGER VEHICLE,,,
04/13/2016,08:19:00,BRONX,10454.0,40.8071531,-73.90820529999998,"(40.8071531, -73.9082053)",EAST 142 STREET,SOUTHERN BOULEVARD,,0,0,0,0,,,Failure to Yield Right-of-Way,Failure to Yield Right-of-Way,,,,PASSENGER VEHICLE,PASSENGER VEHICLE,,,
04/13/2016,08:24:00,QUEENS,11101.0,40.7436445,-73.9404473,"(40.7436445, -73.9404473)",27 STREET,47 AVENUE,,0,0,0,0,,,Failure to Yield Right-of-Way,,,,,SMALL COM VEH(4 TIRES),,,,
04/13/2016,08:30:00,STATEN ISLAND,10312.0,40.5416555,-74.1660903,"(40.5416555, -74.1660903)",AMBOY ROAD,PRESTON AVENUE,,0,0,0,0,,,Lost Consciousness,Lost Consciousness,,,,PASSENGER VEHICLE,PASSENGER VEHICLE,,,
04/13/2016,08:37:00,BRONX,10454.0,40.8035936,-73.9197796,"(40.8035936, -73.9197796)",BRUCKNER BOULEVARD,SAINT ANNS AVENUE,,0,0,0,0,,,Failure to Yield Right-of-Way,Failure to Yield Right-of-Way,,,,PASSENGER VEHICLE,,,,
04/13/2016,09:21:00,,,40.7079682,-73.9997427,"(40.7079682, -73.9997427)",,,,0,0,0,0,,,Lost Consciousness,Lost Consciousness,,,,PASSENGER VEHICLE,PASSENGER VEHICLE,,,
04/13/2016,09:32:00,BRONX,10458.0,40.8618712,-73.8917708,"(40.8618712, -73.8917708)",EAST FORDHAM ROAD,DECATUR AVENUE,,0,0,0,0,,,Lost Consciousness,Lost Consciousness,,,,PASSENGER VEHICLE,,,,
11/07/2016,11:11:00,BROOKLYN,11230.0,40.6126538,-73.96185759999999,"(40.6126538, -73.9618576)",EAST 12 STREET,AVENUE O,,0,0,0,0,,,Failure to Yield Right-of-Way,Unspecified,,,,PASSENGER VEHICLE,PASSENGER VEHICLE,,,
04/13/2016,09:50:00,STATEN ISLAND,10309.0,40.5077536,-74.2300632,"(40.5077536, -74.2300632)",HYLAN BOULEVARD,PAGE AVENUE,,0,0,0,0,,,Failure to Yield Right-of-Way,Failure to Yield Right-of-Way,,,,PASSENGER VEHICLE,,,,
04/13/2016,09:50:00,,,40.5709761,-74.1904078,"(40.5709761, -74.1904078)",EDWARD CURRY AVENUE,,,0,0,0,0,,,Lost Consciousness,Lost Consciousness,,,,PASSENGER VEHICLE,PASSENGER VEHICLE,,,
04/12/2016,10:00:00,BRONX,10454.0,40.8069734,-73.9173662,"(40.8069734, -73.9173662)",,,240 SAINT ANNS AVENUE,0,0,0,0,,,Lost Consciousness,Lost Consciousness,,,,OTHER,PASSENGER VEHICLE,,,
04/12/2016,10:55:00,BRONX,10465.0,40.8245695,-73.83909670000001,"(40.8245695, -73.8390967)",BRUSH AVENUE,LAFAYETTE AVENUE,,0,0,0,0,,,Lost Consciousness,,,,,PASSENGER VEHICLE,,,,
04/12/2016,11:00:00,QUEENS,11432.0,40.7130206,-73.7914015,"(40.7130206, -73.7914015)",KINGSTON PLACE,HIGHLAND AVENUE,,1,0,0,0,,,Failure to Yield Right-of-Way,Failure to Yield Right-of-Way,,,,PASSENGER VEHICLE,PASSENGER VEHICLE,,,
04/12/2016,11:30:00,MANHATTAN,10006.0,40.7076833,-74.0156791,"(40.7076833, -74.0156791)",WEST STREET,WEST THAMES STREET,,0,0,0,0,,,Lost Consciousness,Lost Consciousness,,,,PASSENGER VEHICLE,,,,
04/12/2016,11:30:00,BROOKLYN,11204.0,40.616555,-73.9965818,"(40.616555, -73.9965818)",17 AVENUE,72 STREET,,2,0,0,0,,,Failure to Yield Right-of-Way,Failure to Yield Right-of-Way,,,,PASSENGER VEHICLE,PASSENGER VEHICLE,,,
04/12/2016,11:35:00,BROOKLYN,11201.0,40.6920583,-73.99347309999997,"(40.6920583, -73.9934731)",,,133 CLINTON STREET,0,0,0,0,,,Lost Consciousness,Lost Consciousness,,,,MOTORCYCLE,PASSENGER VEHICLE,,,
04/12/2016,11:45:00,BROOKLYN,11211.0,40.7140618,-73.9529114,"(40.7140618, -73.9529114)",RODNEY STREET,METROPOLITAN AVENUE,,0,0,0,0,,,Lost Consciousness,Lost Consciousness,,,,PASSENGER VEHICLE,LARGE COM VEH(6 OR MORE TIRES),,,
04/12/2016,11:55:00,MANHATTAN,10029.0,40.7893076,-73.94339659999999,"(40.7893076, -73.9433966)",EAST 104 STREET,2 AVENUE,,1,0,1,0,,,Failure to Yield Right-of-Way,,,,,OTHER,,,,
04/12/2016,12:09:00,MANHATTAN,10036.0,40.7561391,-73.9831689,"(40.7561391, -73.9831689)",WEST 44 STREET,AVENUE OF THE AMERICAS,,0,0,0,0,,,Lost Consciousness,Lost Consciousness,,,,PASSENGER VEHICLE,,,,
04/12/2016,12:15:00,QUEENS,11354.0,40.765057,-73.81292009999999,"(40.765057, -73.8129201)",NORTHERN BOULEVARD,MURRAY STREET,,0,0,0,0,,,Lost Consciousness,Lost Consciousness,,,,PICK-UP TRUCK,,,,
04/12/2016,12:20:00,BROOKLYN,11211.0,40.7120613,-73.9473651,"(40.7120613, -73.9473651)",LEONARD STREET,POWERS STREET,,0,0,0,0,,,Failure to Yield Right-of-Way,Failure to Yield Right-of-Way,,,,PASSENGER VEHICLE,OTHER,,,
11/07/2016,14:11:00,QUEENS,11364.0,40.74714779999999,-73.77753349999998,"(40.7471478, -73.7775335)",FRANCIS LEWIS BOULEVARD,56 AVENUE,,2,0,0,0,,,Failure to Yield Right-of-Way,Unspecified,,,,PASSENGER VEHICLE,SPORT UTILITY / STATION WAGON,,,
11/07/2016,14:11:00,QUEENS,11419.0,40.68272279999999,-73.82910559999998,"(40.6827228, -73.8291056)",107 AVENUE,112 STREET,,2,0,0,0,,,Failure to Yield Right-of-Way,Unspecified,,,,PASSENGER VEHICLE,PASSENGER VEHICLE,,,
11/07/2016,15:11:00,BRONX,10459.0,40.8209989,-73.89689190000001,"(40.8209989, -73.8968919)",EAST 163 STREET,INTERVALE AVENUE,,0,0,0,0,,,Failure to Yield Right-of-Way,,,,,,,,,
04/12/2016,13:50:00,BROOKLYN,11204.0,40.6172885,-73.9778514,"(40.6172885, -73.9778514)",59 STREET,BAY PARKWAY,,1,0,0,0,,,Failure to Yield Right-of-Way,Failure to Yield Right-of-Way,,,,PASSENGER VEHICLE,PASSENGER VEHICLE,,,
04/12/2016,13:55:00,MANHATTAN,10012.0,40.7206259,-73.99497109999999,"(40.7206259, -73.9949711)",KENMARE STREET,ELIZABETH STREET,,0,0,0,0,,,Lost Consciousness,Lost Consciousness,,,,PASSENGER VEHICLE,PASSENGER VEHICLE,,,
04/12/2016,14:30:00,BROOKLYN,11226.0,40.6407075,-73.9523759,"(40.6407075, -73.9523759)",AVENUE D,EAST 26 STREET,,0,0,0,0,,,Failure to Yield Right-of-Way,Failure to Yield Right-of-Way,,,,PASSENGER VEHICLE,PASSENGER VEHICLE,,,
04/12/2016,14:30:00,QUEENS,11428.0,40.7249753,-73.7322861,"(40.7249753, -73.7322861)",224 STREET,EDMORE AVENUE,,1,0,0,0,,,Failure to Yield Right-of-Way,Failure to Yield Right-of-Way,,,,PASSENGER VEHICLE,PASSENGER VEHICLE,,,
04/12/2016,16:00:00,QUEENS,11361.0,40.7540907,-73.78113420000003,"(40.7540907, -73.7811342)",46 ROAD,FRANCIS LEWIS BOULEVARD,,0,0,0,0,,,Lost Consciousness,Lost Consciousness,,,,PASSENGER VEHICLE,PASSENGER VEHICLE,,,
10/25/2016,06:10:00,BROOKLYN,11207.0,40.6737143,-73.8924475,"(40.6737143, -73.8924475)",GLENMORE AVENUE,BRADFORD STREET,,3,0,0,0,,,Failure to Yield Right-of-Way,Unspecified,,,,PASSENGER VEHICLE,SPORT UTILITY / STATION WAGON,,,
04/12/2016,16:10:00,BROOKLYN,11205.0,40.6888813,-73.9600039,"(40.6888813, -73.9600039)",CLASSON AVENUE,LAFAYETTE AVENUE,,0,0,0,0,,,Lost Consciousness,Lost Consciousness,,,,PASSENGER VEHICLE,,,,
11/07/2016,16:11:00,QUEENS,11360.0,40.7793235,-73.775599,"(40.7793235, -73.775599)",BELL BOULEVARD,24 AVENUE,,0,0,0,0,,,Failure to Yield Right-of-Way,Unspecified,,,,SPORT UTILITY / STATION WAGON,SPORT UTILITY / STATION WAGON,,,
04/12/2016,16:17:00,BROOKLYN,11229.0,40.604551,-73.94751109999999,"(40.604551, -73.9475111)",AVENUE S,BEDFORD AVENUE,,1,0,0,0,,,Failure to Yield Right-of-Way,Failure to Yield Right-of-Way,,,,VAN,PASSENGER VEHICLE,,,
04/12/2016,16:35:00,QUEENS,11373.0,40.7378744,-73.87718819999998,"(40.7378744, -73.8771882)",,,86-26 BROADWAY,1,0,1,0,,,Failure to Yield Right-of-Way,,,,,PASSENGER VEHICLE,,,,
04/12/2016,17:01:00,BROOKLYN,11215.0,40.6709017,-73.99684930000002,"(40.6709017, -73.9968493)",HAMILTON PLACE,13 STREET,,1,0,0,0,,,Failure to Yield Right-of-Way,Failure to Yield Right-of-Way,,,,PASSENGER VEHICLE,,,,
10/24/2016,08:10:00,QUEENS,11360.0,40.7733668,-73.78103109999998,"(40.7733668, -73.7810311)",KENNEDY STREET,30 AVENUE,,0,0,0,0,,,Failure to Yield Right-of-Way,Unspecified,,,,SPORT UTILITY / STATION WAGON,PASSENGER VEHICLE,,,
04/12/2016,17:20:00,BROOKLYN,11228.0,40.6231333,-74.0152413,"(40.6231333, -74.0152413)",10 AVENUE,77 STREET,,0,0,0,0,,,Failure to Yield Right-of-Way,Failure to Yield Right-of-Way,,,,PASSENGER VEHICLE,PASSENGER VEHICLE,,,
04/12/2016,17:30:00,MANHATTAN,10001.0,40.7465803,-73.99755309999998,"(40.7465803, -73.9975531)",WEST 25 STREET,8 AVENUE,,0,0,0,0,,,Failure to Yield Right-of-Way,Failure to Yield Right-of-Way,,,,PASSENGER VEHICLE,PASSENGER VEHICLE,,,
04/12/2016,18:00:00,QUEENS,11385.0,40.7012804,-73.8816772,"(40.7012804, -73.8816772)",69 PLACE,COOPER AVENUE,,0,0,0,0,,,Failure to Yield Right-of-Way,Failure to Yield Right-of-Way,,,,PASSENGER VEHICLE,PASSENGER VEHICLE,,,
04/12/2016,18:15:00,BROOKLYN,11226.0,40.6433316,-73.9597285,"(40.6433316, -73.9597285)",OCEAN AVENUE,CORTELYOU ROAD,,0,0,0,0,,,Failure to Yield Right-of-Way,Failure to Yield Right-of-Way,,,,PASSENGER VEHICLE,PASSENGER VEHICLE,,,
04/07/2016,15:45:00,BROOKLYN,11203.0,40.6516058,-73.93329659999998,"(40.6516058, -73.9332966)",CHURCH AVENUE,SCHENECTADY AVENUE,,0,0,0,0,,,Lost Consciousness,Lost Consciousness,,,,PASSENGER VEHICLE,PASSENGER VEHICLE,,,
04/07/2016,15:45:00,BROOKLYN,11213.0,40.6755606,-73.9402558,"(40.6755606, -73.9402558)",,,1338 BERGEN STREET,0,0,0,0,,,Lost Consciousness,Lost Consciousness,,,,PASSENGER VEHICLE,PASSENGER VEHICLE,,,
11/07/2016,21:11:00,MANHATTAN,10032.0,40.840953000000006,-73.9394712,"(40.840953, -73.9394712)",SAINT NICHOLAS AVENUE,WEST 168 STREET,,1,0,1,0,,,Failure to Yield Right-of-Way,,,,,PASSENGER VEHICLE,,,,
04/12/2016,19:15:00,QUEENS,11368.0,40.7389656,-73.85272370000001,"(40.7389656, -73.8527237)",,,59-30 108 STREET,0,0,0,0,,,Lost Consciousness,Lost Consciousness,,,,PASSENGER VEHICLE,PASSENGER VEHICLE,,,
04/12/2016,19:30:00,BROOKLYN,11234.0,40.6268219,-73.92670720000002,"(40.6268219, -73.9267072)",FLATLANDS AVENUE,EAST 51 STREET,,0,0,0,0,,,Failure to Yield Right-of-Way,Failure to Yield Right-of-Way,,,,PASSENGER VEHICLE,,,,
04/12/2016,19:45:00,BROOKLYN,11209.0,40.613927,-74.03016509999998,"(40.613927, -74.0301651)",FORT HAMILTON PARKWAY,97 STREET,,0,0,0,0,,,Failure to Yield Right-of-Way,Failure to Yield Right-of-Way,,,,PASSENGER VEHICLE,PASSENGER VEHICLE,,,
04/12/2016,20:42:00,BROOKLYN,11203.0,40.6449749,-73.9209829,"(40.6449749, -73.9209829)",CLARENDON ROAD,EAST 59 STREET,,1,0,0,0,,,Failure to Yield Right-of-Way,Failure to Yield Right-of-Way,,,,PASSENGER VEHICLE,PASSENGER VEHICLE,,,
04/12/2016,22:00:00,BROOKLYN,11220.0,40.6397622,-74.03558879999999,"(40.6397622, -74.0355888)",SHORE ROAD,68 STREET,,0,0,0,0,,,Failure to Yield Right-of-Way,Failure to Yield Right-of-Way,,,,PASSENGER VEHICLE,PASSENGER VEHICLE,,,
04/12/2016,22:26:00,MANHATTAN,10022.0,40.7599831,-73.96480179999998,"(40.7599831, -73.9648018)",EAST 58 STREET,2 AVENUE,,0,0,0,0,,,Lost Consciousness,Lost Consciousness,,,,PASSENGER VEHICLE,PASSENGER VEHICLE,,,
04/12/2016,23:22:00,,,40.7665729,-73.888456,"(40.7665729, -73.888456)",82 STREET,,,0,0,0,0,,,Failure to Yield Right-of-Way,Failure to Yield Right-of-Way,,,,PASSENGER VEHICLE,PASSENGER VEHICLE,,,
11/07/2016,09:11:00,BROOKLYN,11211.0,40.7114813,-73.9455945,"(40.7114813, -73.9455945)",GRAND STREET,MANHATTAN AVENUE,,0,0,0,0,,,Failure to Yield Right-of-Way,,,,,PASSENGER VEHICLE,,,,
04/12/2016,06:50:00,QUEENS,11361.0,40.7586802,-73.7755711,"(40.7586802, -73.7755711)",NORTHERN BOULEVARD,208 STREET,,0,0,0,0,,,Lost Consciousness,Lost Consciousness,,,,PASSENGER VEHICLE,,,,
04/12/2016,08:40:00,QUEENS,11429.0,40.70828820000001,-73.7423804,"(40.7082882, -73.7423804)",215 STREET,110 AVENUE,,1,0,0,0,,,Failure to Yield Right-of-Way,Failure to Yield Right-of-Way,,,,PASSENGER VEHICLE,PASSENGER VEHICLE,,,
04/12/2016,09:09:00,MANHATTAN,10010.0,40.740447,-73.9811088,"(40.740447, -73.9811088)",,,212 EAST 26 STREET,0,0,0,0,,,Lost Consciousness,Lost Consciousness,,,,PASSENGER VEHICLE,PASSENGER VEHICLE,,,
04/12/2016,09:30:00,BRONX,10468.0,40.86004129999999,-73.9086095,"(40.8600413, -73.9086095)",WEST 183 STREET,ANDREWS AVENUE,,0,0,0,0,,,Failure to Yield Right-of-Way,,,,,PASSENGER VEHICLE,,,,
04/12/2016,09:30:00,BROOKLYN,11221.0,40.69831170000001,-73.9255647,"(40.6983117, -73.9255647)",CEDAR STREET,CENTRAL AVENUE,,0,0,0,0,,,Lost Consciousness,Lost Consciousness,,,,SMALL COM VEH(4 TIRES),PASSENGER VEHICLE,,,
04/12/2016,09:46:00,QUEENS,11375.0,40.7145864,-73.8483082,"(40.7145864, -73.8483082)",71 AVENUE,INGRAM STREET,,0,0,0,0,,,Failure to Yield Right-of-Way,Failure to Yield Right-of-Way,,,,PASSENGER VEHICLE,PASSENGER VEHICLE,,,
04/12/2016,09:50:00,MANHATTAN,10025.0,40.8055091,-73.9620072,"(40.8055091, -73.9620072)",AMSTERDAM AVENUE,WEST 114 STREET,,0,0,0,0,,,Failure to Yield Right-of-Way,,,,,SMALL COM VEH(4 TIRES),,,,
04/11/2016,00:00:00,MANHATTAN,10014.0,40.7381401,-74.00647009999999,"(40.7381401, -74.0064701)",JANE STREET,GREENWICH STREET,,0,0,0,0,,,Lost Consciousness,Lost Consciousness,,,,PASSENGER VEHICLE,OTHER,,,
04/11/2016,10:00:00,BRONX,10473.0,40.8211239,-73.84852059999999,"(40.8211239, -73.8485206)",SEWARD AVENUE,CASTLE HILL AVENUE,,0,0,0,0,,,Failure to Yield Right-of-Way,Failure to Yield Right-of-Way,,,,PASSENGER VEHICLE,PASSENGER VEHICLE,,,
04/11/2016,10:00:00,BROOKLYN,11204.0,40.618242,-73.98406820000002,"(40.618242, -73.9840682)",20 AVENUE,62 STREET,,0,0,0,0,,,Failure to Yield Right-of-Way,Failure to Yield Right-of-Way,,,,PASSENGER VEHICLE,PASSENGER VEHICLE,,,
04/11/2016,10:09:00,BROOKLYN,11211.0,40.7048762,-73.9557023,"(40.7048762, -73.9557023)",HEWES STREET,MARCY AVENUE,,0,0,0,0,,,Lost Consciousness,Lost Consciousness,,,,PASSENGER VEHICLE,PASSENGER VEHICLE,,,
11/06/2016,20:11:00,,,40.8281151,-73.9310592,"(40.8281151, -73.9310592)",,,,0,0,0,0,,,Failure to Yield Right-of-Way,Driver Inattention/Distraction,,,,SPORT UTILITY / STATION WAGON,PASSENGER VEHICLE,,,
04/11/2016,10:45:00,MANHATTAN,10128.0,40.7851932,-73.94933309999998,"(40.7851932, -73.9493331)",EAST 96 STREET,3 AVENUE,,0,0,0,0,,,Lost Consciousness,Lost Consciousness,,,,PASSENGER VEHICLE,PASSENGER VEHICLE,,,
11/06/2016,21:11:00,QUEENS,11419.0,40.69585470000001,-73.81891309999997,"(40.6958547, -73.8189131)",130 STREET,ATLANTIC AVENUE,,0,0,0,0,,,Failure to Yield Right-of-Way,Unspecified,,,,SPORT UTILITY / STATION WAGON,PASSENGER VEHICLE,,,
11/06/2016,22:11:00,BRONX,10458.0,40.8574269,-73.8911057,"(40.8574269, -73.8911057)",3 AVENUE,EAST 187 STREET,,0,0,0,0,,,Failure to Yield Right-of-Way,Unspecified,,,,PASSENGER VEHICLE,,,,
04/11/2016,11:00:00,QUEENS,11691.0,40.6068453,-73.75709470000002,"(40.6068453, -73.7570947)",MCBRIDE STREET,DIX AVENUE,,0,0,0,0,,,Failure to Yield Right-of-Way,Failure to Yield Right-of-Way,,,,PASSENGER VEHICLE,PASSENGER VEHICLE,,,
04/11/2016,11:03:00,QUEENS,11412.0,40.6916677,-73.76238590000001,"(40.6916677, -73.7623859)",FARMERS BLVD,LINDEN BLVD,,4,0,0,0,,,Failure to Yield Right-of-Way,Failure to Yield Right-of-Way,Failure to Yield Right-of-Way,,,PASSENGER VEHICLE,PASSENGER VEHICLE,,,
04/11/2016,11:15:00,MANHATTAN,10036.0,40.75790739999999,-73.98929759999999,"(40.7579074, -73.9892976)",8 AVENUE,WEST 43 STREET,,0,0,0,0,,,Failure to Yield Right-of-Way,Failure to Yield Right-of-Way,,,,OTHER,PASSENGER VEHICLE,,,
04/11/2016,11:25:00,BRONX,10451.0,40.8241884,-73.91384000000002,"(40.8241884, -73.91384)",MELROSE AVENUE,EAST 161 STREET,,0,0,0,0,,,Failure to Yield Right-of-Way,Failure to Yield Right-of-Way,,,,PASSENGER VEHICLE,PASSENGER VEHICLE,,,
04/11/2016,11:58:00,MANHATTAN,10027.0,40.8133899,-73.9562587,"(40.8133899, -73.9562587)",AMSTERDAM AVENUE,WEST 125 STREET,,0,0,0,0,,,Failure to Yield Right-of-Way,Failure to Yield Right-of-Way,,,,PASSENGER VEHICLE,PASSENGER VEHICLE,,,
04/11/2016,12:25:00,QUEENS,11358.0,40.7730369,-73.79565799999997,"(40.7730369, -73.795658)",26 AVENUE,169 STREET,,0,0,0,0,,,Lost Consciousness,Lost Consciousness,Lost Consciousness,,,PASSENGER VEHICLE,PASSENGER VEHICLE,PASSENGER VEHICLE,,
11/06/2016,06:11:00,BROOKLYN,11223.0,40.5908509,-73.9674438,"(40.5908509, -73.9674438)",AVENUE X,EAST 3 STREET,,0,0,0,0,,,Failure to Yield Right-of-Way,Unspecified,,,,PASSENGER VEHICLE,,,,
11/06/2016,08:11:00,QUEENS,11421.0,40.6858944,-73.8652337,"(40.6858944, -73.8652337)",ROCKAWAY BOULEVARD,91 AVENUE,,0,0,0,0,,,Failure to Yield Right-of-Way,Unspecified,,,,SPORT UTILITY / STATION WAGON,SPORT UTILITY / STATION WAGON,,,
04/11/2016,12:30:00,,,40.701529,-73.98956290000002,"(40.701529, -73.9895629)",BROOKLYN BRIDGE,,,0,0,0,0,,,Lost Consciousness,Lost Consciousness,,,,PASSENGER VEHICLE,,,,
04/11/2016,13:22:00,BROOKLYN,11221.0,40.6962888,-73.9347052,"(40.6962888, -73.9347052)",STUYVESANT AVENUE,VERNON AVENUE,,0,0,0,0,,,Lost Consciousness,Lost Consciousness,Lost Consciousness,Lost Consciousness,Lost Consciousness,PASSENGER VEHICLE,PASSENGER VEHICLE,PASSENGER VEHICLE,PASSENGER VEHICLE,PASSENGER VEHICLE
04/11/2016,13:35:00,BROOKLYN,11237.0,40.700675,-73.921631,"(40.700675, -73.921631)",KNICKERBOCKER AVENUE,STOCKHOLM STREET,,0,0,0,0,,,Failure to Yield Right-of-Way,Failure to Yield Right-of-Way,,,,PASSENGER VEHICLE,PASSENGER VEHICLE,,,
11/05/2016,11:11:00,BROOKLYN,11223.0,40.5958855,-73.98314090000002,"(40.5958855, -73.9831409)",AVENUE U,WEST 12 STREET,,0,0,0,0,,,Failure to Yield Right-of-Way,Unspecified,,,,SPORT UTILITY / STATION WAGON,PASSENGER VEHICLE,,,
04/11/2016,13:35:00,QUEENS,11412.0,40.7054135,-73.7803454,"(40.7054135, -73.7803454)",LIBERTY AVENUE,180 STREET,,0,0,0,0,,,Lost Consciousness,Lost Consciousness,Lost Consciousness,,,PASSENGER VEHICLE,PASSENGER VEHICLE,PASSENGER VEHICLE,,
04/11/2016,14:30:00,,,40.7389122,-73.8475522,"(40.7389122, -73.8475522)",EXIT 22A,,,0,0,0,0,,,Lost Consciousness,Lost Consciousness,,,,PASSENGER VEHICLE,PASSENGER VEHICLE,,,
04/11/2016,14:50:00,QUEENS,11355.0,40.7460261,-73.83331,"(40.7460261, -73.83331)",LAWRENCE STREET,58 AVENUE,,0,0,0,0,,,Failure to Yield Right-of-Way,Failure to Yield Right-of-Way,,,,PASSENGER VEHICLE,PASSENGER VEHICLE,,,
04/11/2016,15:35:00,MANHATTAN,10001.0,40.753928,-73.99760340000002,"(40.753928, -73.9976034)",WEST 34 STREET,DYER AVENUE,,0,0,0,0,,,Lost Consciousness,Lost Consciousness,,,,PASSENGER VEHICLE,PASSENGER VEHICLE,,,
04/11/2016,15:55:00,QUEENS,11378.0,40.716795,-73.92153990000001,"(40.716795, -73.9215399)",GRAND AVENUE,47 STREET,,2,0,0,0,,,Failure to Yield Right-of-Way,Failure to Yield Right-of-Way,,,,PASSENGER VEHICLE,PASSENGER VEHICLE,,,
04/11/2016,16:20:00,BROOKLYN,11235.0,40.5916853,-73.9402012,"(40.5916853, -73.9402012)",NOSTRAND AVENUE,AVENUE Y,,4,0,1,0,,,Failure to Yield Right-of-Way,Failure to Yield Right-of-Way,,,,PASSENGER VEHICLE,PASSENGER VEHICLE,,,
04/11/2016,16:30:00,BRONX,10466.0,40.888093,-73.8535434,"(40.888093, -73.8535434)",EAST 228 STREET,BRONXWOOD AVENUE,,0,0,0,0,,,Failure to Yield Right-of-Way,Failure to Yield Right-of-Way,,,,PASSENGER VEHICLE,PASSENGER VEHICLE,,,
04/11/2016,16:30:00,BROOKLYN,11204.0,40.620293200000006,-73.9937287,"(40.6202932, -73.9937287)",66 STREET,WALLASTON COURT,,0,0,0,0,,,Lost Consciousness,Lost Consciousness,,,,PASSENGER VEHICLE,PASSENGER VEHICLE,,,
04/11/2016,16:30:00,QUEENS,11432.0,40.7213764,-73.7902931,"(40.7213764, -73.7902931)",UTOPIA PARKWAY,KILDARE ROAD,,0,0,0,0,,,Failure to Yield Right-of-Way,Failure to Yield Right-of-Way,,,,PASSENGER VEHICLE,PASSENGER VEHICLE,,,
04/11/2016,16:30:00,BROOKLYN,11230.0,40.62540720000001,-73.9653051,"(40.6254072, -73.9653051)",,,1330 CONEY ISLAND AVENUE,1,0,0,0,,,Failure to Yield Right-of-Way,Failure to Yield Right-of-Way,,,,PASSENGER VEHICLE,PASSENGER VEHICLE,,,
11/04/2016,22:11:00,BRONX,10454.0,40.8068225,-73.91747840000002,"(40.8068225, -73.9174784)",EAST 138 STREET,SAINT ANNS AVENUE,,2,0,1,0,,,Failure to Yield Right-of-Way,Unspecified,Unspecified,,,SPORT UTILITY / STATION WAGON,PASSENGER VEHICLE,PASSENGER VEHICLE,,
10/14/2016,12:10:00,QUEENS,11419.0,40.68574279999999,-73.8277385,"(40.6857428, -73.8277385)",LIBERTY AVENUE,115 STREET,,0,0,0,0,,,Failure to Yield Right-of-Way,Unspecified,,,,PASSENGER VEHICLE,SPORT UTILITY / STATION WAGON,,,
10/14/2016,14:10:00,QUEENS,11354.0,40.7604644,-73.8265417,"(40.7604644, -73.8265417)",ROOSEVELT AVENUE,UNION STREET,,1,0,0,0,,,Failure to Yield Right-of-Way,Unspecified,,,,SPORT UTILITY / STATION WAGON,PASSENGER VEHICLE,,,
10/14/2016,17:10:00,BROOKLYN,11222.0,40.7274064,-73.9456032,"(40.7274064, -73.9456032)",,,207       NORMAN AVENUE,0,0,0,0,,,Failure to Yield Right-of-Way,Unspecified,,,,PASSENGER VEHICLE,PASSENGER VEHICLE,,,
11/03/2016,10:11:00,QUEENS,11433.0,40.697257,-73.79731109999999,"(40.697257, -73.7973111)",,,106-43    157 STREET,0,0,0,0,,,Failure to Yield Right-of-Way,Unspecified,,,,PASSENGER VEHICLE,SPORT UTILITY / STATION WAGON,,,
11/03/2016,17:11:00,MANHATTAN,10002.0,40.7123613,-73.99374159999998,"(40.7123613, -73.9937416)",MADISON STREET,MECHANICS ALLEY,,0,0,0,0,,,Failure to Yield Right-of-Way,Unspecified,,,,SPORT UTILITY / STATION WAGON,SPORT UTILITY / STATION WAGON,,,
04/11/2016,17:30:00,BROOKLYN,11206.0,40.70878370000001,-73.9359446,"(40.7087837, -73.9359446)",,,297 MESEROLE STREET,0,0,0,0,,,Failure to Yield Right-of-Way,Failure to Yield Right-of-Way,,,,PASSENGER VEHICLE,PASSENGER VEHICLE,,,
04/11/2016,17:30:00,MANHATTAN,10034.0,40.8711945,-73.9140901,"(40.8711945, -73.9140901)",BROADWAY,WEST 218 STREET,,0,0,0,0,,,Lost Consciousness,Lost Consciousness,,,,PASSENGER VEHICLE,PASSENGER VEHICLE,,,
04/11/2016,17:45:00,BRONX,10458.0,40.8571285,-73.88079259999998,"(40.8571285, -73.8807926)",EAST FORDHAM ROAD,SOUTHERN BOULEVARD,,0,0,0,0,,,Lost Consciousness,Lost Consciousness,,,,PASSENGER VEHICLE,PASSENGER VEHICLE,,,
04/11/2016,18:00:00,QUEENS,11355.0,40.75096920000001,-73.8257652,"(40.7509692, -73.8257652)",ELDER AVENUE,MAIN STREET,,0,0,0,0,,,Failure to Yield Right-of-Way,Failure to Yield Right-of-Way,,,,PASSENGER VEHICLE,PASSENGER VEHICLE,,,
11/01/2016,17:11:00,QUEENS,11435.0,40.6945472,-73.80978950000002,"(40.6945472, -73.8097895)",,,138-40    101 AVENUE,0,0,0,0,,,Failure to Yield Right-of-Way,Unspecified,,,,SPORT UTILITY / STATION WAGON,PASSENGER VEHICLE,,,
04/11/2016,18:35:00,QUEENS,11358.0,40.7538385,-73.8058195,"(40.7538385, -73.8058195)",161 STREET,46 AVENUE,,0,0,0,0,,,Failure to Yield Right-of-Way,Failure to Yield Right-of-Way,,,,PASSENGER VEHICLE,PASSENGER VEHICLE,,,
04/11/2016,19:00:00,MANHATTAN,10003.0,40.7295515,-73.9899011,"(40.7295515, -73.9899011)",3 AVENUE,ASTOR PLACE,,0,0,0,0,,,Lost Consciousness,Lost Consciousness,,,,PASSENGER VEHICLE,PASSENGER VEHICLE,,,
04/11/2016,20:40:00,BROOKLYN,11221.0,40.6906667,-73.9127289,"(40.6906667, -73.9127289)",,,1165 HANCOCK STREET,0,0,0,0,,,Failure to Yield Right-of-Way,Failure to Yield Right-of-Way,Failure to Yield Right-of-Way,,,PASSENGER VEHICLE,PASSENGER VEHICLE,PASSENGER VEHICLE,,
10/12/2016,14:10:00,QUEENS,11105.0,40.7724108,-73.89593459999998,"(40.7724108, -73.8959346)",20 AVENUE,49 STREET,,0,0,0,0,,,Failure to Yield Right-of-Way,Unspecified,,,,SPORT UTILITY / STATION WAGON,PASSENGER VEHICLE,,,
04/11/2016,22:20:00,MANHATTAN,10018.0,40.75479779999999,-73.99155400000002,"(40.7547978, -73.991554)",,,570 8 AVENUE,0,0,0,0,,,Lost Consciousness,Lost Consciousness,,,,PASSENGER VEHICLE,PASSENGER VEHICLE,,,
04/11/2016,23:25:00,MANHATTAN,10018.0,40.7570597,-73.9952607,"(40.7570597, -73.9952607)",WEST 39 STREET,DYER AVENUE,,0,0,0,0,,,Lost Consciousness,Lost Consciousness,,,,PASSENGER VEHICLE,PASSENGER VEHICLE,,,
04/11/2016,03:50:00,BROOKLYN,11222.0,40.7239441,-73.9556788,"(40.7239441, -73.9556788)",WYTHE AVENUE,NORTH 15 STREET,,0,0,0,0,,,Lost Consciousness,Lost Consciousness,,,,LARGE COM VEH(6 OR MORE TIRES),PASSENGER VEHICLE,,,
04/11/2016,05:55:00,BROOKLYN,11226.0,40.6403025,-73.9554497,"(40.6403025, -73.9554497)",,,1222 FLATBUSH AVENUE,1,0,1,0,,,Failure to Yield Right-of-Way,,,,,PASSENGER VEHICLE,,,,
10/26/2016,15:10:00,BROOKLYN,11211.0,40.7131061,-73.95146559999998,"(40.7131061, -73.9514656)",UNION AVENUE,DEVOE STREET,,0,0,0,0,,,Failure to Yield Right-of-Way,Unspecified,,,,PASSENGER VEHICLE,,,,
10/26/2016,16:10:00,BROOKLYN,11223.0,40.5965204,-73.9733068,"(40.5965204, -73.9733068)",MC DONALD AVENUE,VILLAGE ROAD NORTH,,1,0,0,0,,,Failure to Yield Right-of-Way,Unspecified,,,,PASSENGER VEHICLE,PASSENGER VEHICLE,,,
04/11/2016,06:30:00,MANHATTAN,10065.0,40.7631141,-73.96251509999998,"(40.7631141, -73.9625151)",EAST 63 STREET,2 AVENUE,,0,0,0,0,,,Lost Consciousness,Lost Consciousness,,,,PASSENGER VEHICLE,PASSENGER VEHICLE,,,
04/11/2016,07:00:00,QUEENS,11354.0,40.7587523,-73.832466,"(40.7587523, -73.832466)",,,133-50 ROOSEVELT AVENUE,0,0,0,0,,,Failure to Yield Right-of-Way,Failure to Yield Right-of-Way,,,,PASSENGER VEHICLE,PASSENGER VEHICLE,,,
10/25/2016,14:10:00,BROOKLYN,11211.0,40.7147294,-73.9420676,"(40.7147294, -73.9420676)",METROPOLITAN AVENUE,BUSHWICK AVENUE,,1,0,0,0,,,Failure to Yield Right-of-Way,Unspecified,,,,PASSENGER VEHICLE,,,,
04/11/2016,07:45:00,BROOKLYN,11226.0,40.6474183,-73.9589765,"(40.6474183, -73.9589765)",,,2111 ALBEMARLE ROAD,0,0,0,0,,,Lost Consciousness,Lost Consciousness,,,,,,,,
04/11/2016,07:55:00,BROOKLYN,11208.0,40.6680235,-73.8728217,"(40.6680235, -73.8728217)",FOUNTAIN AVENUE,HEGEMAN AVENUE,,0,0,0,0,,,Lost Consciousness,Lost Consciousness,,,,PASSENGER VEHICLE,,,,
04/11/2016,08:00:00,BROOKLYN,11207.0,40.6625346,-73.8982903,"(40.6625346, -73.8982903)",RIVERDALE AVENUE,HINSDALE STREET,,0,0,0,0,,,Failure to Yield Right-of-Way,Failure to Yield Right-of-Way,,,,PASSENGER VEHICLE,PASSENGER VEHICLE,,,
04/11/2016,08:00:00,QUEENS,11357.0,40.7806814,-73.7974327,"(40.7806814, -73.7974327)",166 STREET,19 AVENUE,,0,0,0,0,,,Failure to Yield Right-of-Way,Failure to Yield Right-of-Way,,,,PASSENGER VEHICLE,PASSENGER VEHICLE,,,
04/11/2016,08:10:00,QUEENS,11354.0,40.770642,-73.8265658,"(40.770642, -73.8265658)",UNION STREET,31 ROAD,,0,0,0,0,,,Failure to Yield Right-of-Way,Failure to Yield Right-of-Way,,,,PASSENGER VEHICLE,PASSENGER VEHICLE,,,
04/11/2016,08:30:00,QUEENS,11360.0,40.7864297,-73.793266,"(40.7864297, -73.793266)",201 STREET,CROSS ISLAND PARKWAY,,0,0,0,0,,,Failure to Yield Right-of-Way,Failure to Yield Right-of-Way,,,,PASSENGER VEHICLE,PASSENGER VEHICLE,,,
04/11/2016,08:45:00,MANHATTAN,10019.0,40.7643229,-73.97719599999998,"(40.7643229, -73.977196)",WEST 57 STREET,AVENUE OF THE AMERICAS,,0,0,0,0,,,Failure to Yield Right-of-Way,Failure to Yield Right-of-Way,,,,PASSENGER VEHICLE,PASSENGER VEHICLE,,,
04/11/2016,08:47:00,MANHATTAN,10065.0,40.7642891,-73.95561590000001,"(40.7642891, -73.9556159)",EAST 68 STREET,YORK AVENUE,,0,0,0,0,,,Lost Consciousness,Lost Consciousness,,,,PASSENGER VEHICLE,PASSENGER VEHICLE,,,
04/11/2016,09:20:00,QUEENS,11420.0,40.6807552,-73.81344150000002,"(40.6807552, -73.8134415)",LINDEN BOULEVARD,127 STREET,,0,0,0,0,,,Failure to Yield Right-of-Way,Failure to Yield Right-of-Way,Failure to Yield Right-of-Way,,,PASSENGER VEHICLE,PASSENGER VEHICLE,PASSENGER VEHICLE,,
04/11/2016,09:30:00,QUEENS,11434.0,40.6596509,-73.7738282,"(40.6596509, -73.7738282)",ROCKAWAY BOULEVARD,FARMERS BOULEVARD,,1,0,0,0,,,Failure to Yield Right-of-Way,Failure to Yield Right-of-Way,,,,PASSENGER VEHICLE,PASSENGER VEHICLE,,,
04/11/2016,09:40:00,BROOKLYN,11229.0,40.6079544,-73.96096,"(40.6079544, -73.96096)",QUENTIN ROAD,EAST 12 STREET,,0,0,0,0,,,Failure to Yield Right-of-Way,Failure to Yield Right-of-Way,,,,PASSENGER VEHICLE,PASSENGER VEHICLE,,,
04/10/2016,00:00:00,BRONX,10473.0,40.82401770000001,-73.8491933,"(40.8240177, -73.8491933)",TURNBULL AVENUE,CASTLE HILL AVENUE,,1,0,1,0,,,Failure to Yield Right-of-Way,,,,,PASSENGER VEHICLE,,,,
04/10/2016,00:40:00,QUEENS,11411.0,40.701646,-73.7304503,"(40.701646, -73.7304503)",227 STREET,114 AVENUE,,1,0,0,0,,,Failure to Yield Right-of-Way,Failure to Yield Right-of-Way,,,,PASSENGER VEHICLE,PASSENGER VEHICLE,,,
10/22/2016,12:10:00,QUEENS,11357.0,40.7916894,-73.80962029999998,"(40.7916894, -73.8096203)",,,152-68    12 AVENUE,0,0,0,0,,,Failure to Yield Right-of-Way,Unspecified,,,,SPORT UTILITY / STATION WAGON,SPORT UTILITY / STATION WAGON,,,
04/10/2016,12:00:00,MANHATTAN,10013.0,40.7208537,-74.0039287,"(40.7208537, -74.0039287)",WOOSTER STREET,CANAL STREET,,1,0,0,0,,,Failure to Yield Right-of-Way,Failure to Yield Right-of-Way,,,,PASSENGER VEHICLE,BICYCLE,,,
04/10/2016,12:35:00,QUEENS,11422.0,40.6716623,-73.73297240000002,"(40.6716623, -73.7329724)",135 AVENUE,242 STREET,,1,0,0,0,,,Failure to Yield Right-of-Way,Failure to Yield Right-of-Way,,,,PASSENGER VEHICLE,PASSENGER VEHICLE,,,
04/10/2016,13:26:00,BRONX,10472.0,40.829305,-73.8752958,"(40.829305, -73.8752958)",,,1605 WESTCHESTER AVENUE,0,0,0,0,,,Lost Consciousness,Lost Consciousness,,,,PASSENGER VEHICLE,VAN,,,
04/10/2016,14:50:00,MANHATTAN,10022.0,40.75785870000001,-73.975592,"(40.7578587, -73.975592)",EAST 50 STREET,MADISON AVENUE,,0,0,0,0,,,Lost Consciousness,Lost Consciousness,,,,PASSENGER VEHICLE,,,,
04/10/2016,14:59:00,BROOKLYN,11220.0,40.6375709,-74.0145672,"(40.6375709, -74.0145672)",61 STREET,6 AVENUE,,0,0,0,0,,,Failure to Yield Right-of-Way,Failure to Yield Right-of-Way,,,,PASSENGER VEHICLE,PASSENGER VEHICLE,,,
04/10/2016,15:14:00,MANHATTAN,10025.0,40.7991021,-73.968541,"(40.7991021, -73.968541)",BROADWAY,WEST 103 STREET,,2,0,2,0,,,Failure to Yield Right-of-Way,Failure to Yield Right-of-Way,Failure to Yield Right-of-Way,Failure to Yield Right-of-Way,,PASSENGER VEHICLE,PASSENGER VEHICLE,PASSENGER VEHICLE,PASSENGER VEHICLE,
04/10/2016,15:45:00,STATEN ISLAND,10306.0,40.5753082,-74.1211198,"(40.5753082, -74.1211198)",RICHMOND ROAD,ODIN STREET,,0,0,0,0,,,Failure to Yield Right-of-Way,Failure to Yield Right-of-Way,,,,PASSENGER VEHICLE,PASSENGER VEHICLE,,,
04/10/2016,15:50:00,BROOKLYN,11208.0,40.6754032,-73.8719136,"(40.6754032, -73.8719136)",PITKIN AVENUE,EUCLID AVENUE,,0,0,0,0,,,Failure to Yield Right-of-Way,Failure to Yield Right-of-Way,,,,PASSENGER VEHICLE,PASSENGER VEHICLE,,,
04/10/2016,16:30:00,BROOKLYN,11232.0,40.6650745,-73.99656850000002,"(40.6650745, -73.9965685)",3 AVENUE,19 STREET,,0,0,0,0,,,Failure to Yield Right-of-Way,Failure to Yield Right-of-Way,,,,PASSENGER VEHICLE,PASSENGER VEHICLE,,,
10/21/2016,18:10:00,STATEN ISLAND,10305.0,40.5970126,-74.06544620000003,"(40.5970126, -74.0654462)",CEDAR AVENUE,RAILROAD AVENUE,,0,0,0,0,,,Failure to Yield Right-of-Way,Unspecified,,,,PASSENGER VEHICLE,PASSENGER VEHICLE,,,
10/07/2016,12:10:00,QUEENS,11368.0,40.7518488,-73.85226209999998,"(40.7518488, -73.8522621)",114 STREET,41 AVENUE,,0,0,0,0,,,Failure to Yield Right-of-Way,Unspecified,,,,PASSENGER VEHICLE,,,,
04/10/2016,17:00:00,QUEENS,11354.0,40.7751827,-73.8465743,"(40.7751827, -73.8465743)",,,25-67 COLLEGE POINT BOULEVARD,0,0,0,0,,,Failure to Yield Right-of-Way,Failure to Yield Right-of-Way,,,,PASSENGER VEHICLE,PASSENGER VEHICLE,,,
04/10/2016,17:00:00,BROOKLYN,11206.0,40.7016369,-73.9422665,"(40.7016369, -73.9422665)",GRAHAM AVENUE,DEBEVOISE STREET,,1,0,1,0,,,Failure to Yield Right-of-Way,,,,,MOTORCYCLE,,,,
04/10/2016,17:09:00,BRONX,10451.0,40.8136659,-73.9312375,"(40.8136659, -73.9312375)",MAJOR DEEGAN EXPRESSWAY,EAST 138 STREET,,0,0,0,0,,,Failure to Yield Right-of-Way,Failure to Yield Right-of-Way,,,,PASSENGER VEHICLE,PASSENGER VEHICLE,,,
04/10/2016,17:20:00,MANHATTAN,10026.0,40.7994408,-73.9553035,"(40.7994408, -73.9553035)",7 AVENUE,WEST 110 STREET,,0,0,0,0,,,Failure to Yield Right-of-Way,Failure to Yield Right-of-Way,,,,PASSENGER VEHICLE,PASSENGER VEHICLE,,,
04/10/2016,17:30:00,MANHATTAN,10012.0,40.7304302,-74.0001227,"(40.7304302, -74.0001227)",MAC DOUGAL STREET,WEST 3 STREET,,0,0,0,0,,,Lost Consciousness,Lost Consciousness,,,,PASSENGER VEHICLE,PASSENGER VEHICLE,,,
04/10/2016,18:30:00,MANHATTAN,10018.0,40.7540925,-73.99207740000001,"(40.7540925, -73.9920774)",WEST 37 STREET,8 AVENUE,,0,0,0,0,,,Lost Consciousness,Lost Consciousness,,,,PASSENGER VEHICLE,PASSENGER VEHICLE,,,
10/19/2016,16:10:00,BROOKLYN,11212.0,40.65883839999999,-73.92045829999998,"(40.6588384, -73.9204583)",KINGS HIGHWAY,EAST 95 STREET,,0,0,0,0,,,Failure to Yield Right-of-Way,Unspecified,,,,SPORT UTILITY / STATION WAGON,SPORT UTILITY / STATION WAGON,,,
10/19/2016,17:10:00,MANHATTAN,10027.0,40.8163616,-73.95408909999998,"(40.8163616, -73.9540891)",WEST 131 STREET,AMSTERDAM AVENUE,,0,0,0,0,,,Lost Consciousness,Unspecified,,,,PASSENGER VEHICLE,PASSENGER VEHICLE,,,
04/10/2016,19:15:00,QUEENS,11354.0,40.76646829999999,-73.8183565,"(40.7664683, -73.8183565)",35 AVENUE,148 STREET,,0,0,0,0,,,Lost Consciousness,Lost Consciousness,,,,PASSENGER VEHICLE,PASSENGER VEHICLE,,,
04/10/2016,19:20:00,MANHATTAN,10012.0,40.7203211,-73.9940403,"(40.7203211, -73.9940403)",KENMARE STREET,BOWERY,,0,0,0,0,,,Failure to Yield Right-of-Way,Failure to Yield Right-of-Way,,,,SMALL COM VEH(4 TIRES),PASSENGER VEHICLE,,,
04/10/2016,19:48:00,QUEENS,11355.0,40.75038770000001,-73.8188876,"(40.7503877, -73.8188876)",,,46-08 KISSENA BOULEVARD,1,0,0,0,,,Lost Consciousness,Lost Consciousness,,,,BICYCLE,PASSENGER VEHICLE,,,
10/18/2016,14:10:00,QUEENS,11432.0,40.7124946,-73.7844631,"(40.7124946, -73.7844631)",179 STREET,HILLSIDE AVENUE,,0,0,0,0,,,Failure to Yield Right-of-Way,Unspecified,,,,PASSENGER VEHICLE,PASSENGER VEHICLE,,,
04/10/2016,01:55:00,BROOKLYN,11221.0,40.6972536,-73.9156161,"(40.6972536, -73.9156161)",LINDEN STREET,KNICKERBOCKER AVENUE,,1,0,0,0,,,Failure to Yield Right-of-Way,Failure to Yield Right-of-Way,,,,PASSENGER VEHICLE,BICYCLE,,,
04/10/2016,20:00:00,BROOKLYN,11222.0,40.7206904,-73.946442,"(40.7206904, -73.946442)",,,507 GRAHAM AVENUE,0,0,0,0,,,Lost Consciousness,Lost Consciousness,,,,PASSENGER VEHICLE,OTHER,,,
10/16/2016,00:10:00,MANHATTAN,10002.0,40.7180039,-73.986584,"(40.7180039, -73.986584)",DELANCEY STREET,SUFFOLK STREET,,0,0,0,0,,,Failure to Yield Right-of-Way,Passing or Lane Usage Improper,,,,SPORT UTILITY / STATION WAGON,PASSENGER VEHICLE,,,
10/16/2016,11:10:00,BROOKLYN,11230.0,40.6252821,-73.9604671,"(40.6252821, -73.9604671)",AVENUE J,EAST 16 STREET,,1,0,1,0,,,Failure to Yield Right-of-Way,,,,,PASSENGER VEHICLE,,,,
04/10/2016,21:20:00,QUEENS,11413.0,40.677928,-73.7548493,"(40.677928, -73.7548493)",SPRINGFIELD BOULEVARD,136 AVENUE,,2,0,0,0,,,Failure to Yield Right-of-Way,Failure to Yield Right-of-Way,,,,PASSENGER VEHICLE,PASSENGER VEHICLE,,,
10/14/2016,19:10:00,MANHATTAN,10013.0,40.7213753,-74.00021650000002,"(40.7213753, -74.0002165)",,,477       BROADWAY,0,0,0,0,,,Failure to Yield Right-of-Way,Following Too Closely,,,,PASSENGER VEHICLE,PICK-UP TRUCK,,,
04/10/2016,06:00:00,BROOKLYN,11213.0,40.6685062,-73.9256052,"(40.6685062, -73.9256052)",EASTERN PARKWAY,BUFFALO AVENUE,,2,0,0,0,,,Failure to Yield Right-of-Way,Failure to Yield Right-of-Way,,,,PASSENGER VEHICLE,PASSENGER VEHICLE,,,
04/10/2016,06:15:00,QUEENS,11102.0,40.7690596,-73.9284713,"(40.7690596, -73.9284713)",30TH RD,21 STREET,,0,0,0,0,,,Failure to Yield Right-of-Way,Failure to Yield Right-of-Way,,,,PASSENGER VEHICLE,PASSENGER VEHICLE,,,
04/10/2016,06:15:00,BROOKLYN,11207.0,40.6609891,-73.88919890000003,"(40.6609891, -73.8891989)",HEGEMAN AVENUE,WYONA STREET,,1,0,0,0,,,Failure to Yield Right-of-Way,Failure to Yield Right-of-Way,,,,PASSENGER VEHICLE,PASSENGER VEHICLE,,,
04/10/2016,08:50:00,QUEENS,11360.0,40.7783403,-73.77113220000003,"(40.7783403, -73.7711322)",28 AVENUE,216 STREET,,3,0,0,0,,,Failure to Yield Right-of-Way,Failure to Yield Right-of-Way,,,,PASSENGER VEHICLE,PASSENGER VEHICLE,,,
04/10/2016,09:30:00,QUEENS,11355.0,40.7587409,-73.8143276,"(40.7587409, -73.8143276)",149 STREET,BEECH AVENUE,,0,0,0,0,,,Failure to Yield Right-of-Way,Failure to Yield Right-of-Way,Failure to Yield Right-of-Way,Failure to Yield Right-of-Way,,PASSENGER VEHICLE,PASSENGER VEHICLE,PASSENGER VEHICLE,PASSENGER VEHICLE,
04/09/2016,00:15:00,MANHATTAN,10014.0,40.733054,-74.00640820000002,"(40.733054, -74.0064082)",CHRISTOPHER STREET,HUDSON STREET,,0,0,0,0,,,Lost Consciousness,Lost Consciousness,,,,PASSENGER VEHICLE,PASSENGER VEHICLE,,,
04/09/2016,10:30:00,QUEENS,11415.0,40.7043641,-73.8338181,"(40.7043641, -73.8338181)",,,83-96 118 STREET,0,0,0,0,,,Lost Consciousness,Lost Consciousness,,,,PASSENGER VEHICLE,PASSENGER VEHICLE,,,
04/09/2016,11:30:00,QUEENS,11101.0,40.7431163,-73.9560666,"(40.7431163, -73.9560666)",,,5-47 50 AVENUE,0,0,0,0,,,Lost Consciousness,Lost Consciousness,,,,PASSENGER VEHICLE,PASSENGER VEHICLE,,,
04/09/2016,12:30:00,QUEENS,11106.0,40.7637338,-73.9413896,"(40.7637338, -73.9413896)",VERNON BOULEVARD,35 AVENUE,,0,0,0,0,,,Failure to Yield Right-of-Way,Failure to Yield Right-of-Way,,,,PASSENGER VEHICLE,PASSENGER VEHICLE,,,
04/09/2016,12:51:00,MANHATTAN,10011.0,40.744099,-73.99564409999998,"(40.744099, -73.9956441)",WEST 23 STREET,7 AVENUE,,1,0,1,0,,,Failure to Yield Right-of-Way,,,,,PASSENGER VEHICLE,,,,
04/09/2016,13:00:00,QUEENS,11354.0,40.7629537,-73.8319573,"(40.7629537, -73.8319573)",MAIN STREET,NORTHERN BOULEVARD,,0,0,0,0,,,Failure to Yield Right-of-Way,Failure to Yield Right-of-Way,,,,PASSENGER VEHICLE,PASSENGER VEHICLE,,,
04/09/2016,13:58:00,BRONX,10460.0,40.8354378,-73.8641141,"(40.8354378, -73.8641141)",WOOD AVENUE,LELAND AVENUE,,3,0,0,0,,,Failure to Yield Right-of-Way,Failure to Yield Right-of-Way,,,,PASSENGER VEHICLE,PASSENGER VEHICLE,,,
04/09/2016,14:00:00,BROOKLYN,11221.0,40.6906625,-73.9221007,"(40.6906625, -73.9221007)",,,29 LINDEN STREET,0,0,0,0,,,Failure to Yield Right-of-Way,Failure to Yield Right-of-Way,,,,PASSENGER VEHICLE,PASSENGER VEHICLE,,,
04/09/2016,14:17:00,MANHATTAN,10036.0,40.7570785,-73.9894457,"(40.7570785, -73.9894457)",,,288 WEST 42 STREET,0,0,0,0,,,Lost Consciousness,Lost Consciousness,,,,PASSENGER VEHICLE,PASSENGER VEHICLE,,,
04/09/2016,14:30:00,QUEENS,11355.0,40.7542523,-73.8278248,"(40.7542523, -73.8278248)",MAIN STREET,FRANKLIN AVENUE,,0,0,0,0,,,Failure to Yield Right-of-Way,Failure to Yield Right-of-Way,,,,PASSENGER VEHICLE,,,,
04/09/2016,14:44:00,MANHATTAN,10014.0,40.7342946,-74.0071625,"(40.7342946, -74.0071625)",GREENWICH STREET,CHARLES STREET,,0,0,0,0,,,Failure to Yield Right-of-Way,Failure to Yield Right-of-Way,,,,PASSENGER VEHICLE,PASSENGER VEHICLE,,,
04/09/2016,14:45:00,MANHATTAN,10025.0,40.7991318,-73.9666629,"(40.7991318, -73.9666629)",AMSTERDAM AVENUE,WEST 104 STREET,,1,0,0,0,,,Failure to Yield Right-of-Way,Failure to Yield Right-of-Way,,,,PASSENGER VEHICLE,BICYCLE,,,
04/09/2016,15:00:00,QUEENS,11354.0,40.7652665,-73.81516500000002,"(40.7652665, -73.815165)",NORTHERN BOULEVARD,150 STREET,,0,0,0,0,,,Lost Consciousness,Lost Consciousness,,,,PASSENGER VEHICLE,PASSENGER VEHICLE,,,
04/09/2016,15:06:00,MANHATTAN,10011.0,40.7322143,-73.9986108,"(40.7322143, -73.9986108)",WASHINGTON SQUARE NORTH,MAC DOUGAL STREET,,0,0,0,0,,,Lost Consciousness,Lost Consciousness,,,,OTHER,,,,
10/25/2016,16:10:00,QUEENS,11355.0,40.7558708,-73.8183241,"(40.7558708, -73.8183241)",DELAWARE AVENUE,BURLING STREET,,0,0,0,0,,,Failure to Yield Right-of-Way,Failure to Yield Right-of-Way,,,,PASSENGER VEHICLE,SPORT UTILITY / STATION WAGON,,,
04/09/2016,15:55:00,QUEENS,11434.0,40.691029,-73.7807822,"(40.691029, -73.7807822)",LINDEN BOULEVARD,169 STREET,,1,0,0,0,,,Failure to Yield Right-of-Way,Failure to Yield Right-of-Way,Failure to Yield Right-of-Way,,,PASSENGER VEHICLE,PASSENGER VEHICLE,PASSENGER VEHICLE,,
04/09/2016,16:14:00,QUEENS,11369.0,40.7644369,-73.8735762,"(40.7644369, -73.8735762)",25 AVENUE,96 STREET,,0,0,0,0,,,Failure to Yield Right-of-Way,Failure to Yield Right-of-Way,,,,PASSENGER VEHICLE,PASSENGER VEHICLE,,,
10/08/2016,16:10:00,QUEENS,11368.0,40.758306,-73.85560840000002,"(40.758306, -73.8556084)",NORTHERN BOULEVARD,114 STREET,,1,0,0,0,,,Failure to Yield Right-of-Way,Unspecified,,,,PASSENGER VEHICLE,SPORT UTILITY / STATION WAGON,,,
10/25/2016,17:10:00,MANHATTAN,10016.0,40.74689470000001,-73.9829439,"(40.7468947, -73.9829439)",,,45        EAST 33 STREET,0,0,0,0,,,Failure to Yield Right-of-Way,Unspecified,,,,SPORT UTILITY / STATION WAGON,,,,
04/09/2016,16:31:00,BROOKLYN,11218.0,40.64138300000001,-73.9693973,"(40.641383, -73.9693973)",CONEY ISLAND AVENUE,AVENUE C,,1,0,0,0,,,Failure to Yield Right-of-Way,Failure to Yield Right-of-Way,,,,PASSENGER VEHICLE,PASSENGER VEHICLE,,,
04/09/2016,16:38:00,QUEENS,11361.0,40.75892,-73.77468590000002,"(40.75892, -73.7746859)",NORTHERN BOULEVARD,209 STREET,,0,0,0,0,,,Lost Consciousness,Lost Consciousness,,,,PASSENGER VEHICLE,PASSENGER VEHICLE,,,
04/09/2016,16:45:00,QUEENS,11354.0,40.7689616,-73.8155843,"(40.7689616, -73.8155843)",150 STREET,33 AVENUE,,0,0,0,0,,,Failure to Yield Right-of-Way,Failure to Yield Right-of-Way,,,,PASSENGER VEHICLE,PASSENGER VEHICLE,,,
04/09/2016,16:50:00,BRONX,10467.0,40.8731621,-73.874758,"(40.8731621, -73.874758)",WEBSTER AVENUE,PARKSIDE PLACE,,0,0,0,0,,,Lost Consciousness,Lost Consciousness,,,,PASSENGER VEHICLE,PASSENGER VEHICLE,,,
04/09/2016,20:06:00,BROOKLYN,11238.0,40.67959000000001,-73.96817920000002,"(40.67959, -73.9681792)",,,570 VANDERBILT AVENUE,1,0,0,0,,,Failure to Yield Right-of-Way,Failure to Yield Right-of-Way,,,,BICYCLE,PASSENGER VEHICLE,,,
04/09/2016,20:15:00,QUEENS,11361.0,40.7679545,-73.7783377,"(40.7679545, -73.7783377)",35 AVENUE,KENNEDY STREET,,0,0,0,0,,,Failure to Yield Right-of-Way,Failure to Yield Right-of-Way,,,,PASSENGER VEHICLE,PASSENGER VEHICLE,,,
04/09/2016,20:15:00,BRONX,10458.0,40.8539091,-73.8836288,"(40.8539091, -73.8836288)",CROTONA AVENUE,EAST 187 STREET,,1,0,0,0,,,Failure to Yield Right-of-Way,Failure to Yield Right-of-Way,Failure to Yield Right-of-Way,,,PASSENGER VEHICLE,PASSENGER VEHICLE,PASSENGER VEHICLE,,
04/09/2016,20:30:00,QUEENS,11101.0,40.7402777,-73.92780929999998,"(40.7402777, -73.9278093)",48 AVENUE,38 STREET,,0,0,0,0,,,Failure to Yield Right-of-Way,Failure to Yield Right-of-Way,,,,PASSENGER VEHICLE,PASSENGER VEHICLE,,,
04/09/2016,21:10:00,MANHATTAN,10029.0,40.7999853,-73.9448468,"(40.7999853, -73.9448468)",MADISON AVENUE,EAST 116 STREET,,0,0,0,0,,,Lost Consciousness,Lost Consciousness,,,,PASSENGER VEHICLE,PASSENGER VEHICLE,,,
04/09/2016,21:30:00,QUEENS,11101.0,40.7516035,-73.9338317,"(40.7516035, -73.9338317)",31 STREET,40 AVENUE,,0,0,0,0,,,Failure to Yield Right-of-Way,Failure to Yield Right-of-Way,,,,PASSENGER VEHICLE,PASSENGER VEHICLE,,,
04/09/2016,22:15:00,QUEENS,11422.0,40.6574116,-73.7283872,"(40.6574116, -73.7283872)",FRANCIS LEWIS BOULEVARD,147 AVENUE,,0,0,0,0,,,Failure to Yield Right-of-Way,Failure to Yield Right-of-Way,,,,PASSENGER VEHICLE,PASSENGER VEHICLE,,,
04/09/2016,04:20:00,QUEENS,11421.0,40.6915655,-73.8656225,"(40.6915655, -73.8656225)",JAMAICA AVENUE,76 STREET,,1,0,0,0,,,Lost Consciousness,Lost Consciousness,,,,PASSENGER VEHICLE,PASSENGER VEHICLE,,,
10/30/2016,19:10:00,QUEENS,11354.0,40.7661594,-73.8209025,"(40.7661594, -73.8209025)",35 AVENUE,146 STREET,,0,0,0,0,,,Failure to Yield Right-of-Way,Failure to Yield Right-of-Way,,,,SPORT UTILITY / STATION WAGON,SPORT UTILITY / STATION WAGON,,,
10/30/2016,19:10:00,QUEENS,11358.0,40.7584175,-73.7967063,"(40.7584175, -73.7967063)",NORTHERN BOULEVARD,170 STREET,,0,0,0,0,,,Failure to Yield Right-of-Way,Failure to Yield Right-of-Way,,,,PASSENGER VEHICLE,PASSENGER VEHICLE,,,
04/09/2016,09:30:00,,,40.6014908,-73.9003688,"(40.6014908, -73.9003688)",FLATBUSH AVE,,,0,0,0,0,,,Lost Consciousness,Lost Consciousness,,,,PASSENGER VEHICLE,PASSENGER VEHICLE,,,
04/08/2016,00:57:00,QUEENS,11354.0,40.7639417,-73.8281463,"(40.7639417, -73.8281463)",NORTHERN BOULEVARD,UNION STREET,,1,0,1,0,,,Lost Consciousness,,,,,PASSENGER VEHICLE,,,,
10/30/2016,21:10:00,QUEENS,11435.0,40.7080611,-73.8072874,"(40.7080611, -73.8072874)",150 STREET,87 AVENUE,,1,0,1,0,,,Failure to Yield Right-of-Way,,,,,SPORT UTILITY / STATION WAGON,,,,
04/08/2016,10:30:00,BROOKLYN,11235.0,40.58687570000001,-73.9569723,"(40.5868757, -73.9569723)",HOMECREST AVENUE,WILLIAMS COURT,,1,0,0,0,,,Failure to Yield Right-of-Way,Failure to Yield Right-of-Way,,,,PASSENGER VEHICLE,PASSENGER VEHICLE,,,
04/08/2016,11:00:00,BROOKLYN,11220.0,40.6428659,-74.0126478,"(40.6428659, -74.0126478)",54 STREET,5 AVENUE,,0,0,0,0,,,Failure to Yield Right-of-Way,Failure to Yield Right-of-Way,,,,PASSENGER VEHICLE,PASSENGER VEHICLE,,,
04/08/2016,11:30:00,BROOKLYN,11249.0,40.7224105,-73.957646,"(40.7224105, -73.957646)",,,101 NORTH 12 STREET,0,0,0,0,,,Lost Consciousness,Lost Consciousness,,,,PASSENGER VEHICLE,,,,
04/08/2016,13:40:00,BRONX,10456.0,40.82775770000001,-73.9116927,"(40.8277577, -73.9116927)",MELROSE AVENUE,BROOK AVENUE,,0,0,0,0,,,Lost Consciousness,Lost Consciousness,,,,PASSENGER VEHICLE,PASSENGER VEHICLE,,,
04/08/2016,13:50:00,BROOKLYN,11204.0,40.6114513,-73.9839113,"(40.6114513, -73.9839113)",,,6817 BAY PARKWAY,0,0,0,0,,,Failure to Yield Right-of-Way,Failure to Yield Right-of-Way,,,,PASSENGER VEHICLE,PASSENGER VEHICLE,,,
04/08/2016,14:20:00,QUEENS,11422.0,40.6778443,-73.72973890000002,"(40.6778443, -73.7297389)",BROOKVILLE BOULEVARD,130 ROAD,,0,0,0,0,,,Failure to Yield Right-of-Way,Failure to Yield Right-of-Way,,,,PASSENGER VEHICLE,PASSENGER VEHICLE,,,
04/08/2016,14:25:00,MANHATTAN,10001.0,40.7484385,-73.996196,"(40.7484385, -73.996196)",WEST 28 STREET,8 AVENUE,,0,0,0,0,,,Lost Consciousness,Lost Consciousness,,,,PASSENGER VEHICLE,PASSENGER VEHICLE,,,
04/08/2016,14:38:00,MANHATTAN,10010.0,40.7401675,-73.98425920000003,"(40.7401675, -73.9842592)",LEXINGTON AVENUE,EAST 24 STREET,,0,0,0,0,,,Lost Consciousness,Lost Consciousness,,,,OTHER,OTHER,,,
10/29/2016,11:10:00,QUEENS,11354.0,40.7676126,-73.81646529999998,"(40.7676126, -73.8164653)",34 AVENUE,149 PLACE,,2,0,0,0,,,Failure to Yield Right-of-Way,Unspecified,,,,PASSENGER VEHICLE,PASSENGER VEHICLE,,,
10/29/2016,13:10:00,QUEENS,11354.0,40.7644548,-73.831773,"(40.7644548, -73.831773)",FARRINGTON STREET,35 AVENUE,,1,0,1,0,,,Failure to Yield Right-of-Way,,,,,SPORT UTILITY / STATION WAGON,,,,
10/29/2016,15:10:00,QUEENS,11385.0,40.7040718,-73.85961379999998,"(40.7040718, -73.8596138)",88 STREET,81 AVENUE,,0,0,0,0,,,Failure to Yield Right-of-Way,Unspecified,,,,SPORT UTILITY / STATION WAGON,PASSENGER VEHICLE,,,
04/08/2016,15:00:00,MANHATTAN,10011.0,40.7422271,-73.9970084,"(40.7422271, -73.9970084)",WEST 20 STREET,7 AVENUE,,0,0,0,0,,,Lost Consciousness,Lost Consciousness,,,,PASSENGER VEHICLE,SMALL COM VEH(4 TIRES),,,
10/29/2016,16:10:00,MANHATTAN,10017.0,40.7532425,-73.9666173,"(40.7532425, -73.9666173)",1 AVENUE,EAST 49 STREET,,0,0,0,0,,,Failure to Yield Right-of-Way,Failure to Yield Right-of-Way,,,,TAXI,PASSENGER VEHICLE,,,
04/08/2016,15:30:00,BROOKLYN,11222.0,40.7286963,-73.9515661,"(40.7286963, -73.9515661)",CALYER STREET,ECKFORD STREET,,0,0,0,0,,,Lost Consciousness,Lost Consciousness,,,,PASSENGER VEHICLE,PASSENGER VEHICLE,,,
10/29/2016,18:10:00,QUEENS,11429.0,40.7135009,-73.7305503,"(40.7135009, -73.7305503)",101 AVENUE,223 STREET,,0,0,0,0,,,Failure to Yield Right-of-Way,Unspecified,,,,PASSENGER VEHICLE,SPORT UTILITY / STATION WAGON,,,
10/29/2016,19:10:00,MANHATTAN,10022.0,40.759308,-73.9652931,"(40.759308, -73.9652931)",2 AVENUE,EAST 57 STREET,,2,0,2,0,,,Failure to Yield Right-of-Way,,,,,SPORT UTILITY / STATION WAGON,,,,
04/08/2016,15:30:00,QUEENS,11101.0,40.7412433,-73.9361624,"(40.7412433, -73.9361624)",48 AVENUE,31 STREET,,1,0,0,0,,,Failure to Yield Right-of-Way,Failure to Yield Right-of-Way,,,,PASSENGER VEHICLE,PASSENGER VEHICLE,,,
04/08/2016,15:45:00,BROOKLYN,11222.0,40.7291407,-73.9578871,"(40.7291407, -73.9578871)",,,77 MILTON STREET,0,0,0,0,,,Lost Consciousness,Lost Consciousness,,,,PASSENGER VEHICLE,,,,
04/08/2016,15:45:00,BROOKLYN,11230.0,40.6340471,-73.96310279999999,"(40.6340471, -73.9631028)",FOSTER AVENUE,MARLBOROUGH ROAD,,0,0,0,0,,,Failure to Yield Right-of-Way,Failure to Yield Right-of-Way,,,,PASSENGER VEHICLE,PASSENGER VEHICLE,,,
04/08/2016,16:05:00,BROOKLYN,11233.0,40.6701513,-73.9229069,"(40.6701513, -73.9229069)",,,1647 ST JOHNS PLACE,1,0,1,0,,,Failure to Yield Right-of-Way,,,,,PASSENGER VEHICLE,,,,
04/08/2016,16:10:00,BRONX,10452.0,40.8427518,-73.9228189,"(40.8427518, -73.9228189)",GRANT HIGHWAY,PLIMPTON AVENUE,,0,0,0,0,,,Lost Consciousness,Lost Consciousness,,,,PASSENGER VEHICLE,PASSENGER VEHICLE,,,
04/08/2016,16:12:00,MANHATTAN,10013.0,40.7194676,-74.0043723,"(40.7194676, -74.0043723)",CHURCH STREET,WALKER STREET,,0,0,0,0,,,Lost Consciousness,Lost Consciousness,,,,PASSENGER VEHICLE,PASSENGER VEHICLE,,,
04/08/2016,16:13:00,BRONX,10459.0,40.8209889,-73.89490479999998,"(40.8209889, -73.8949048)",EAST 163 STREET,TIFFANY STREET,,0,0,0,0,,,Lost Consciousness,Lost Consciousness,,,,PASSENGER VEHICLE,PASSENGER VEHICLE,,,
04/08/2016,16:45:00,QUEENS,11368.0,40.7547026,-73.84539790000002,"(40.7547026, -73.8453979)",,,123-01 ROOSEVELT AVENUE,0,0,0,0,,,Failure to Yield Right-of-Way,Failure to Yield Right-of-Way,,,,PASSENGER VEHICLE,PASSENGER VEHICLE,,,
04/08/2016,17:15:00,MANHATTAN,10032.0,40.8303834,-73.94017099999998,"(40.8303834, -73.940171)",SAINT NICHOLAS PLACE,WEST 155 STREET,,0,0,0,0,,,Failure to Yield Right-of-Way,Failure to Yield Right-of-Way,,,,PASSENGER VEHICLE,PASSENGER VEHICLE,,,
04/08/2016,17:15:00,MANHATTAN,10036.0,40.7567703,-73.9827104,"(40.7567703, -73.9827104)",AVENUE OF THE AMERICAS,WEST 45 STREET,,0,0,0,0,,,Lost Consciousness,Lost Consciousness,,,,PASSENGER VEHICLE,PASSENGER VEHICLE,,,
04/08/2016,17:42:00,BROOKLYN,11215.0,40.6643935,-73.9903218,"(40.6643935, -73.9903218)",,,601 5 AVENUE,1,0,0,0,,,Failure to Yield Right-of-Way,Failure to Yield Right-of-Way,,,,PASSENGER VEHICLE,BICYCLE,,,
04/08/2016,17:45:00,QUEENS,11357.0,40.7763977,-73.8176434,"(40.7763977, -73.8176434)",WILLETS POINT BOULEVARD,149 STREET,,1,0,1,0,,,Failure to Yield Right-of-Way,,,,,PASSENGER VEHICLE,,,,
10/27/2016,15:10:00,QUEENS,11361.0,40.7684502,-73.7707583,"(40.7684502, -73.7707583)",36 AVENUE,214 PLACE,,0,0,0,0,,,Failure to Yield Right-of-Way,Unspecified,,,,PASSENGER VEHICLE,SPORT UTILITY / STATION WAGON,,,
10/27/2016,17:10:00,BROOKLYN,11229.0,40.6007425,-73.9390407,"(40.6007425, -73.9390407)",AVENUE U,BATCHELDER STREET,,0,0,0,0,,,Failure to Yield Right-of-Way,,,,,PASSENGER VEHICLE,,,,
04/08/2016,18:00:00,BRONX,10453.0,40.8487956,-73.9149395,"(40.8487956, -73.9149395)",HARRISON AVENUE,WEST 176 STREET,,1,0,0,0,,,Failure to Yield Right-of-Way,Failure to Yield Right-of-Way,,,,PASSENGER VEHICLE,BICYCLE,,,
10/27/2016,09:10:00,BROOKLYN,11212.0,40.6604514,-73.9015806,"(40.6604514, -73.9015806)",NEWPORT STREET,POWELL STREET,,0,0,0,0,,,Failure to Yield Right-of-Way,Unspecified,,,,PASSENGER VEHICLE,SPORT UTILITY / STATION WAGON,,,
04/08/2016,19:00:00,BROOKLYN,11219.0,40.6286836,-74.0121408,"(40.6286836, -74.0121408)",BAY RIDGE AVENUE,FORT HAMILTON PARKWAY,,0,0,0,0,,,Lost Consciousness,Lost Consciousness,,,,PASSENGER VEHICLE,PASSENGER VEHICLE,,,
10/26/2016,18:10:00,BROOKLYN,11214.0,40.6034261,-73.9886885,"(40.6034261, -73.9886885)",81 STREET,23 AVENUE,,0,0,0,0,,,Failure to Yield Right-of-Way,Unspecified,,,,PASSENGER VEHICLE,SPORT UTILITY / STATION WAGON,,,
10/26/2016,06:10:00,QUEENS,11434.0,40.692147,-73.7659,"(40.692147, -73.7659)",,,180-31    LINDEN BOULEVARD,1,0,1,0,,,Failure to Yield Right-of-Way,,,,,PASSENGER VEHICLE,,,,
04/08/2016,21:00:00,QUEENS,11434.0,40.670917,-73.776025,"(40.670917, -73.776025)",,,137-15 160 STREET,0,0,0,0,,,Lost Consciousness,Lost Consciousness,,,,PASSENGER VEHICLE,PASSENGER VEHICLE,,,
09/30/2016,20:09:00,QUEENS,11358.0,40.7577348,-73.7940265,"(40.7577348, -73.7940265)",NORTHERN BOULEVARD,172 STREET,,1,0,2,0,,,Failure to Yield Right-of-Way,,,,,SPORT UTILITY / STATION WAGON,,,,
04/08/2016,22:00:00,QUEENS,11385.0,40.704706,-73.8715291,"(40.704706, -73.8715291)",79 STREET,78 AVE,,0,0,0,0,,,Failure to Yield Right-of-Way,Failure to Yield Right-of-Way,,,,PASSENGER VEHICLE,PASSENGER VEHICLE,,,
04/08/2016,23:15:00,MANHATTAN,10001.0,40.7502089,-74.0023315,"(40.7502089, -74.0023315)",10 AVENUE,WEST 27 STREET,,0,0,0,0,,,Lost Consciousness,Lost Consciousness,,,,PASSENGER VEHICLE,,,,
12/03/2016,00:12:00,BROOKLYN,11217.0,40.6794727,-73.98467729999999,"(40.6794727, -73.9846773)",,,214       3 AVENUE,0,0,0,0,,,Failure to Yield Right-of-Way,Unspecified,,,,SPORT UTILITY / STATION WAGON,SPORT UTILITY / STATION WAGON,,,
12/03/2016,00:12:00,QUEENS,11101.0,40.7530792,-73.9371689,"(40.7530792, -73.9371689)",40 AVENUE,27 STREET,,2,0,0,0,,,Failure to Yield Right-of-Way,Unspecified,,,,PASSENGER VEHICLE,PASSENGER VEHICLE,,,
12/03/2016,10:12:00,QUEENS,11358.0,40.7656551,-73.8060955,"(40.7656551, -73.8060955)",159 STREET,35 AVENUE,,0,0,0,0,,,Failure to Yield Right-of-Way,Unspecified,,,,SPORT UTILITY / STATION WAGON,SPORT UTILITY / STATION WAGON,,,
10/25/2016,08:10:00,QUEENS,11365.0,40.7463959,-73.7893193,"(40.7463959, -73.7893193)",188 STREET,50 AVENUE,,0,0,0,0,,,Failure to Yield Right-of-Way,Failure to Yield Right-of-Way,,,,SPORT UTILITY / STATION WAGON,SPORT UTILITY / STATION WAGON,,,
10/25/2016,08:10:00,QUEENS,11375.0,40.7160242,-73.8500834,"(40.7160242, -73.8500834)",70 AVENUE,HARROW STREET,,0,0,0,0,,,Failure to Yield Right-of-Way,Unspecified,,,,SPORT UTILITY / STATION WAGON,PASSENGER VEHICLE,,,
12/03/2016,12:12:00,BROOKLYN,11237.0,40.701774,-73.9192025,"(40.701774, -73.9192025)",,,187       IRVING AVENUE,1,0,1,0,,,Failure to Yield Right-of-Way,,,,,VAN,,,,
12/03/2016,13:12:00,BROOKLYN,11222.0,40.7318612,-73.9518958,"(40.7318612, -73.9518958)",MC GUINNESS BOULEVARD,JAVA STREET,,0,0,0,0,,,Failure to Yield Right-of-Way,Unspecified,,,,SPORT UTILITY / STATION WAGON,PASSENGER VEHICLE,,,
12/03/2016,13:12:00,QUEENS,11369.0,40.76041179999999,-73.87484,"(40.7604118, -73.87484)",94 STREET,31 AVENUE,,2,0,0,0,,,Failure to Yield Right-of-Way,Unspecified,Unspecified,,,SPORT UTILITY / STATION WAGON,SPORT UTILITY / STATION WAGON,SPORT UTILITY / STATION WAGON,,
12/03/2016,17:12:00,QUEENS,11355.0,40.7504554,-73.81151390000002,"(40.7504554, -73.8115139)",PARSONS BOULEVARD,OAK AVENUE,,0,0,0,0,,,Failure to Yield Right-of-Way,Unspecified,,,,SPORT UTILITY / STATION WAGON,SPORT UTILITY / STATION WAGON,,,
12/03/2016,17:12:00,QUEENS,11412.0,40.7050859,-73.774179,"(40.7050859, -73.774179)",LIBERTY AVENUE,104 AVENUE,,0,0,0,0,,,Failure to Yield Right-of-Way,Unspecified,,,,SPORT UTILITY / STATION WAGON,PASSENGER VEHICLE,,,
10/23/2016,13:10:00,QUEENS,11375.0,40.7269601,-73.8465302,"(40.7269601, -73.8465302)",68 AVENUE,108 STREET,,0,0,0,0,,,Failure to Yield Right-of-Way,,,,,PASSENGER VEHICLE,PASSENGER VEHICLE,,,
12/03/2016,17:12:00,BROOKLYN,11223.0,40.6003214,-73.98594140000002,"(40.6003214, -73.9859414)",STILLWELL AVENUE,AVENUE S,,1,0,1,0,,,Failure to Yield Right-of-Way,,,,,SPORT UTILITY / STATION WAGON,,,,
12/03/2016,17:12:00,MANHATTAN,10027.0,40.8082954,-73.94882059999998,"(40.8082954, -73.9488206)",WEST 124 STREET,7 AVENUE,,1,0,1,0,,,Failure to Yield Right-of-Way,,,,,SPORT UTILITY / STATION WAGON,,,,
12/03/2016,17:12:00,QUEENS,11435.0,40.6941831,-73.8054343,"(40.6941831, -73.8054343)",105 AVENUE,LIVERPOOL STREET,,1,0,1,0,,,Failure to Yield Right-of-Way,,,,,PASSENGER VEHICLE,,,,
12/03/2016,18:12:00,STATEN ISLAND,10306.0,40.5664967,-74.1137614,"(40.5664967, -74.1137614)",HYLAN BOULEVARD,EBBITTS STREET,,1,0,0,0,,,Failure to Yield Right-of-Way,Unspecified,,,,PASSENGER VEHICLE,PASSENGER VEHICLE,,,
12/03/2016,19:12:00,BROOKLYN,11211.0,40.71286129999999,-73.95712900000002,"(40.7128613, -73.957129)",,,312       GRAND STREET,0,0,0,0,,,Failure to Yield Right-of-Way,Unspecified,,,,SPORT UTILITY / STATION WAGON,SPORT UTILITY / STATION WAGON,,,
12/03/2016,19:12:00,BROOKLYN,11237.0,40.6928497,-73.9035413,"(40.6928497, -73.9035413)",IRVING AVENUE,DECATUR STREET,,0,0,0,0,,,Failure to Yield Right-of-Way,Unspecified,,,,PASSENGER VEHICLE,PASSENGER VEHICLE,,,
12/03/2016,19:12:00,BROOKLYN,11236.0,40.6483539,-73.9100022,"(40.6483539, -73.9100022)",EAST 94 STREET,AVENUE D,,1,0,1,0,,,Failure to Yield Right-of-Way,,,,,SPORT UTILITY / STATION WAGON,,,,
12/03/2016,19:12:00,QUEENS,11428.0,40.7234265,-73.74402109999998,"(40.7234265, -73.7440211)",91 AVENUE,216 STREET,,2,0,0,0,,,Failure to Yield Right-of-Way,Unspecified,Unspecified,,,SPORT UTILITY / STATION WAGON,PASSENGER VEHICLE,SPORT UTILITY / STATION WAGON,,
12/03/2016,20:12:00,BROOKLYN,11223.0,40.6030058,-73.96155350000002,"(40.6030058, -73.9615535)",AVENUE S,CONEY ISLAND AVENUE,,0,0,0,0,,,Failure to Yield Right-of-Way,Unspecified,,,,PASSENGER VEHICLE,PASSENGER VEHICLE,,,
10/21/2016,19:10:00,QUEENS,11414.0,40.6599139,-73.84680340000001,"(40.6599139, -73.8468034)",158 AVENUE,86 STREET,,1,0,0,0,,,Lost Consciousness,,,,,PASSENGER VEHICLE,,,,
12/03/2016,20:12:00,QUEENS,11385.0,40.7056162,-73.88345490000002,"(40.7056162, -73.8834549)",70 AVENUE,69 PLACE,,2,0,0,0,,,Failure to Yield Right-of-Way,Failure to Yield Right-of-Way,,,,PASSENGER VEHICLE,PASSENGER VEHICLE,,,
12/03/2016,21:12:00,BRONX,10451.0,40.816535,-73.9282179,"(40.816535, -73.9282179)",GRAND CONCOURSE,EAST 144 STREET,,0,0,0,0,,,Failure to Yield Right-of-Way,Unspecified,,,,PASSENGER VEHICLE,PASSENGER VEHICLE,,,
12/03/2016,21:12:00,QUEENS,11360.0,40.7865557,-73.7930815,"(40.7865557, -73.7930815)",,,201-10    CROSS ISLAND PARKWAY,0,0,0,0,,,Failure to Yield Right-of-Way,Unspecified,,,,SPORT UTILITY / STATION WAGON,SPORT UTILITY / STATION WAGON,,,
12/03/2016,23:12:00,STATEN ISLAND,10314.0,40.6149255,-74.1169847,"(40.6149255, -74.1169847)",SLOSSON AVENUE,SANFORD PLACE,,1,0,0,0,,,Lost Consciousness,Unspecified,,,,PASSENGER VEHICLE,PASSENGER VEHICLE,,,
12/03/2016,04:12:00,QUEENS,11355.0,40.7554882,-73.8247175,"(40.7554882, -73.8247175)",FRANKLIN AVENUE,KISSENA BOULEVARD,,1,0,1,0,,,Failure to Yield Right-of-Way,,,,,,,,,
12/03/2016,06:12:00,BROOKLYN,11207.0,40.6793737,-73.88643909999998,"(40.6793737, -73.8864391)",FULTON STREET,ASHFORD STREET,,0,0,0,0,,,Failure to Yield Right-of-Way,Unspecified,Unspecified,,,PASSENGER VEHICLE,SPORT UTILITY / STATION WAGON,PASSENGER VEHICLE,,
12/03/2016,06:12:00,BROOKLYN,11209.0,40.6191501,-74.03996509999997,"(40.6191501, -74.0399651)",SHORE ROAD,OLIVER STREET,,0,0,0,0,,,Failure to Yield Right-of-Way,Unspecified,,,,PASSENGER VEHICLE,PASSENGER VEHICLE,,,
10/17/2016,19:10:00,BROOKLYN,11234.0,40.6233196,-73.93124990000003,"(40.6233196, -73.9312499)",AVENUE L,EAST 46 STREET,,0,0,0,0,,,Failure to Yield Right-of-Way,Unspecified,,,,SPORT UTILITY / STATION WAGON,PASSENGER VEHICLE,,,
12/03/2016,09:12:00,BROOKLYN,11222.0,40.7239083,-73.9376185,"(40.7239083, -73.9376185)",VANDERVORT AVENUE,CHERRY STREET,,0,0,0,0,,,Failure to Yield Right-of-Way,Unspecified,,,,PICK-UP TRUCK,,,,
12/03/2016,09:12:00,QUEENS,11422.0,40.662185,-73.7379376,"(40.662185, -73.7379376)",243 STREET,143 AVENUE,,0,0,0,0,,,Failure to Yield Right-of-Way,Unspecified,,,,PASSENGER VEHICLE,PASSENGER VEHICLE,,,
12/03/2016,09:12:00,QUEENS,11418.0,40.6898733,-73.84281130000002,"(40.6898733, -73.8428113)",ATLANTIC AVENUE,102 STREET,,2,0,0,0,,,Failure to Yield Right-of-Way,Unspecified,,,,SPORT UTILITY / STATION WAGON,SPORT UTILITY / STATION WAGON,,,
10/16/2016,21:10:00,MANHATTAN,10003.0,40.7291011,-73.9873214,"(40.7291011, -73.9873214)",,,143       2 AVENUE,1,0,1,0,,,Failure to Yield Right-of-Way,,,,,BICYCLE,,,,
12/02/2016,10:12:00,MANHATTAN,10013.0,40.72084,-74.00066020000001,"(40.72084, -74.0006602)",GRAND STREET,BROADWAY,,1,0,0,0,,,Failure to Yield Right-of-Way,Unspecified,,,,TAXI,BICYCLE,,,
10/15/2016,20:10:00,MANHATTAN,10011.0,40.7416672,-74.0011295,"(40.7416672, -74.0011295)",WEST 17 STREET,8 AVENUE,,1,0,0,0,,,Failure to Yield Right-of-Way,Unspecified,,,,PASSENGER VEHICLE,BICYCLE,,,
12/02/2016,13:12:00,BROOKLYN,11208.0,40.6703265,-73.87795059999998,"(40.6703265, -73.8779506)",BLAKE AVENUE,ATKINS AVENUE,,0,0,0,0,,,Failure to Yield Right-of-Way,Unspecified,,,,SPORT UTILITY / STATION WAGON,PASSENGER VEHICLE,,,
10/14/2016,10:10:00,BROOKLYN,11218.0,40.6453166,-73.970545,"(40.6453166, -73.970545)",CONEY ISLAND AVENUE,TURNER PLACE,,1,0,0,0,,,Failure to Yield Right-of-Way,Unspecified,,,,PASSENGER VEHICLE,PASSENGER VEHICLE,,,
12/02/2016,15:12:00,STATEN ISLAND,10304.0,40.6061629,-74.09091690000002,"(40.6061629, -74.0909169)",TARGEE STREET,BALTIC AVENUE,,0,0,0,0,,,Failure to Yield Right-of-Way,Unspecified,,,,PASSENGER VEHICLE,TAXI,,,
12/02/2016,15:12:00,STATEN ISLAND,10312.0,40.5453441,-74.1605691,"(40.5453441, -74.1605691)",,,4343      AMBOY ROAD,0,0,0,0,,,Failure to Yield Right-of-Way,Unspecified,,,,SPORT UTILITY / STATION WAGON,SPORT UTILITY / STATION WAGON,,,
12/02/2016,15:12:00,BROOKLYN,11234.0,40.6341296,-73.92850059999998,"(40.6341296, -73.9285006)",KINGS HIGHWAY,UTICA AVENUE,,1,0,0,0,,,Failure to Yield Right-of-Way,Unspecified,,,,PASSENGER VEHICLE,PASSENGER VEHICLE,,,
10/13/2016,13:10:00,QUEENS,11361.0,40.7660969,-73.7844304,"(40.7660969, -73.7844304)",35 AVENUE,203 STREET,,0,0,0,0,,,Failure to Yield Right-of-Way,Unspecified,,,,SPORT UTILITY / STATION WAGON,PASSENGER VEHICLE,,,
12/02/2016,18:12:00,MANHATTAN,10039.0,40.8259814,-73.93590400000002,"(40.8259814, -73.935904)",7 AVENUE,WEST 152 STREET,,0,0,0,0,,,Failure to Yield Right-of-Way,Unspecified,,,,PASSENGER VEHICLE,TAXI,,,
12/02/2016,19:12:00,BROOKLYN,11208.0,40.6727547,-73.8720412,"(40.6727547, -73.8720412)",SUTTER AVENUE,DOSCHER STREET,,0,0,0,0,,,Failure to Yield Right-of-Way,Unspecified,,,,TAXI,PASSENGER VEHICLE,,,
12/02/2016,19:12:00,STATEN ISLAND,10309.0,40.5209185,-74.2351117,"(40.5209185, -74.2351117)",PAGE AVENUE,RICHMOND VALLEY ROAD,,0,0,0,0,,,Failure to Yield Right-of-Way,Unspecified,,,,PICK-UP TRUCK,SPORT UTILITY / STATION WAGON,,,
10/12/2016,13:10:00,BROOKLYN,11234.0,40.6111038,-73.9204792,"(40.6111038, -73.9204792)",,,5400      AVENUE U,0,0,0,0,,,Failure to Yield Right-of-Way,Unspecified,,,,SPORT UTILITY / STATION WAGON,PASSENGER VEHICLE,,,
12/02/2016,18:12:00,QUEENS,11368.0,40.7489893,-73.8637996,"(40.7489893, -73.8637996)",102 STREET,40 ROAD,,1,0,1,0,,,Failure to Yield Right-of-Way,,,,,SPORT UTILITY / STATION WAGON,,,,
12/02/2016,19:12:00,QUEENS,11355.0,40.7597749,-73.81728829999999,"(40.7597749, -73.8172883)",SANFORD AVENUE,147 STREET,,0,0,0,0,,,Failure to Yield Right-of-Way,Unspecified,,,,SPORT UTILITY / STATION WAGON,PASSENGER VEHICLE,,,
12/02/2016,20:12:00,,,40.7577726,-73.8541542,"(40.7577726, -73.8541542)",,,,0,0,0,0,,,Failure to Yield Right-of-Way,Unspecified,,,,PASSENGER VEHICLE,SPORT UTILITY / STATION WAGON,,,
12/02/2016,20:12:00,STATEN ISLAND,10309.0,40.532036100000006,-74.222193,"(40.5320361, -74.222193)",ENGLEWOOD AVENUE,GLADWIN STREET,,0,0,0,0,,,Failure to Yield Right-of-Way,Failure to Yield Right-of-Way,,,,SPORT UTILITY / STATION WAGON,SPORT UTILITY / STATION WAGON,,,
12/02/2016,20:12:00,QUEENS,11355.0,40.75096920000001,-73.8257652,"(40.7509692, -73.8257652)",MAIN STREET,ELDER AVENUE,,1,0,1,0,,,Failure to Yield Right-of-Way,,,,,TAXI,,,,
12/02/2016,21:12:00,,,40.75416110000001,-73.9626935,"(40.7541611, -73.9626935)",,,,0,0,0,0,,,Failure to Yield Right-of-Way,Unspecified,,,,SPORT UTILITY / STATION WAGON,SPORT UTILITY / STATION WAGON,,,
10/09/2016,22:10:00,BROOKLYN,11249.0,40.72219910000001,-73.9575415,"(40.7221991, -73.9575415)",,,61        WYTHE AVENUE,0,0,0,0,,,Failure to Yield Right-of-Way,Unspecified,,,,PASSENGER VEHICLE,,,,
12/02/2016,23:12:00,BROOKLYN,11234.0,40.6240937,-73.9187598,"(40.6240937, -73.9187598)",AVENUE L,EAST 59 STREET,,0,0,0,0,,,Failure to Yield Right-of-Way,Unspecified,,,,PASSENGER VEHICLE,PASSENGER VEHICLE,,,
10/07/2016,14:10:00,MANHATTAN,10001.0,40.7502939,-73.9948425,"(40.7502939, -73.9948425)",WEST 31 STREET,8 AVENUE,,0,0,0,0,,,Failure to Yield Right-of-Way,Unspecified,,,,TAXI,PASSENGER VEHICLE,,,
12/02/2016,08:12:00,BRONX,10466.0,40.8888006,-73.8531513,"(40.8888006, -73.8531513)",EAST 229 STREET,BRONXWOOD AVENUE,,0,0,0,0,,,Lost Consciousness,Unspecified,,,,PASSENGER VEHICLE,PASSENGER VEHICLE,,,
12/01/2016,10:12:00,BROOKLYN,11221.0,40.6968159,-73.93491390000001,"(40.6968159, -73.9349139)",,,957       BROADWAY,0,0,0,0,,,Failure to Yield Right-of-Way,Other Vehicular,,,,PASSENGER VEHICLE,PICK-UP TRUCK,,,
12/01/2016,10:12:00,QUEENS,11355.0,40.7514564,-73.832275,"(40.7514564, -73.832275)",BLOSSOM AVENUE,COLLEGE POINT BOULEVARD,,0,0,0,0,,,Failure to Yield Right-of-Way,,,,,PASSENGER VEHICLE,PASSENGER VEHICLE,,,
12/01/2016,10:12:00,QUEENS,11355.0,40.7465563,-73.826199,"(40.7465563, -73.826199)",MAIN STREET,BOOTH MEMORIAL AVENUE,,0,0,0,0,,,Failure to Yield Right-of-Way,Failure to Yield Right-of-Way,Failure to Yield Right-of-Way,Unspecified,,PASSENGER VEHICLE,SPORT UTILITY / STATION WAGON,PASSENGER VEHICLE,SPORT UTILITY / STATION WAGON,
12/01/2016,14:12:00,QUEENS,11101.0,40.7535224,-73.9344686,"(40.7535224, -73.9344686)",39 AVENUE,29 STREET,,0,0,0,0,,,Failure to Yield Right-of-Way,Unspecified,,,,TAXI,TAXI,,,
12/01/2016,14:12:00,QUEENS,11367.0,40.7239035,-73.82064799999998,"(40.7239035, -73.820648)",VLEIGH PLACE,73 TERRACE,,0,0,0,0,,,Failure to Yield Right-of-Way,Unspecified,,,,PASSENGER VEHICLE,PICK-UP TRUCK,,,
12/01/2016,14:12:00,QUEENS,11417.0,40.6787891,-73.84425429999997,"(40.6787891, -73.8442543)",CROSS BAY BOULEVARD,107 AVENUE,,0,0,0,0,,,Failure to Yield Right-of-Way,Unspecified,,,,SPORT UTILITY / STATION WAGON,,,,
12/01/2016,14:12:00,BROOKLYN,11222.0,40.7305404,-73.9506483,"(40.7305404, -73.9506483)",GREENPOINT AVENUE,NEWEL STREET,,1,0,0,0,,,Failure to Yield Right-of-Way,Unspecified,,,,SPORT UTILITY / STATION WAGON,PICK-UP TRUCK,,,
12/01/2016,15:12:00,QUEENS,11691.0,40.6072019,-73.7544356,"(40.6072019, -73.7544356)",BIRDSALL  AVENUE,BEACH  CHANNEL  DRIVE,,0,0,0,0,,,Failure to Yield Right-of-Way,,,,,PASSENGER VEHICLE,,,,
12/01/2016,16:12:00,BROOKLYN,11229.0,40.5950296,-73.9547346,"(40.5950296, -73.9547346)",EAST 16 STREET,GRAVESEND NECK ROAD,,1,0,1,0,,,Failure to Yield Right-of-Way,,,,,SPORT UTILITY / STATION WAGON,,,,
12/01/2016,17:12:00,BRONX,10459.0,40.8253078,-73.89066319999998,"(40.8253078, -73.8906632)",HOE AVENUE,WESTCHESTER AVENUE,,1,0,1,0,,,Failure to Yield Right-of-Way,,,,,SPORT UTILITY / STATION WAGON,,,,
12/01/2016,17:12:00,QUEENS,11411.0,40.6983571,-73.731358,"(40.6983571, -73.731358)",115 AVENUE,227 STREET,,1,0,1,0,,,Failure to Yield Right-of-Way,,,,,PASSENGER VEHICLE,,,,
12/01/2016,20:12:00,BROOKLYN,11223.0,40.59747720000001,-73.9687045,"(40.5974772, -73.9687045)",AVENUE U,EAST 3 STREET,,0,0,0,0,,,Failure to Yield Right-of-Way,Unspecified,,,,SPORT UTILITY / STATION WAGON,,,,
12/01/2016,21:12:00,MANHATTAN,10011.0,40.7400807,-73.9948433,"(40.7400807, -73.9948433)",,,620       AVENUE OF THE AMERICAS,0,0,0,0,,,Failure to Yield Right-of-Way,Unspecified,,,,SPORT UTILITY / STATION WAGON,TAXI,,,
12/01/2016,07:12:00,BRONX,10452.0,40.8392713,-73.92255920000002,"(40.8392713, -73.9225592)",WEST 169 STREET,SHAKESPEARE AVENUE,,1,0,0,0,,,Failure to Yield Right-of-Way,Unspecified,,,,TAXI,MOTORCYCLE,,,
12/01/2016,06:12:00,BROOKLYN,11207.0,40.6662595,-73.8840175,"(40.6662595, -73.8840175)",LIVONIA AVENUE,WARWICK STREET,,0,0,0,0,,,Failure to Yield Right-of-Way,Unspecified,,,,PASSENGER VEHICLE,,,,
12/01/2016,08:12:00,BRONX,10467.0,40.8840165,-73.87908809999998,"(40.8840165, -73.8790881)",EAST 212 STREET,DEKALB AVENUE,,0,0,0,0,,,Failure to Yield Right-of-Way,Unspecified,,,,TAXI,SPORT UTILITY / STATION WAGON,,,
12/01/2016,09:12:00,BRONX,10451.0,40.8263977,-73.9211541,"(40.8263977, -73.9211541)",SHERIDAN AVENUE,EAST 161 STREET,,0,0,0,0,,,Failure to Yield Right-of-Way,Unspecified,,,,PASSENGER VEHICLE,SPORT UTILITY / STATION WAGON,,,
12/01/2016,08:12:00,,,40.8650713,-73.87183809999998,"(40.8650713, -73.8718381)",,,,0,0,0,0,,,Failure to Yield Right-of-Way,,,,,PASSENGER VEHICLE,PASSENGER VEHICLE,,,
12/01/2016,09:12:00,BRONX,10468.0,40.8706075,-73.8917458,"(40.8706075, -73.8917458)",,,108       EAST 198 STREET,0,0,0,0,,,Failure to Yield Right-of-Way,Unspecified,,,,PASSENGER VEHICLE,PASSENGER VEHICLE,,,
12/01/2016,09:12:00,BROOKLYN,11213.0,40.6756104,-73.94101640000002,"(40.6756104, -73.9410164)",BERGEN STREET,REVERE PLACE,,0,0,0,0,,,Failure to Yield Right-of-Way,,,,,BICYCLE,,,,
12/01/2016,09:12:00,QUEENS,11434.0,40.6700025,-73.7785875,"(40.6700025, -73.7785875)",157 STREET,137 AVENUE,,0,0,0,0,,,Failure to Yield Right-of-Way,Unspecified,,,,TAXI,PASSENGER VEHICLE,,,
11/30/2016,10:11:00,BROOKLYN,11234.0,40.6102265,-73.9306007,"(40.6102265, -73.9306007)",EAST 37 STREET,AVENUE S,,0,0,0,0,,,Failure to Yield Right-of-Way,Unsafe Speed,,,,SPORT UTILITY / STATION WAGON,SPORT UTILITY / STATION WAGON,,,
11/30/2016,11:11:00,,,40.8280184,-73.93121,"(40.8280184, -73.93121)",,,,0,0,0,0,,,Failure to Yield Right-of-Way,Pavement Slippery,,,,PASSENGER VEHICLE,PICK-UP TRUCK,,,
11/30/2016,14:11:00,BROOKLYN,11229.0,40.603719700000006,-73.94250240000002,"(40.6037197, -73.9425024)",,,3301      NOSTRAND AVENUE,2,0,0,0,,,Failure to Yield Right-of-Way,Unspecified,,,,PASSENGER VEHICLE,SPORT UTILITY / STATION WAGON,,,
11/30/2016,16:11:00,QUEENS,11375.0,40.7299972,-73.8414683,"(40.7299972, -73.8414683)",GRAND CENTRAL PARKWAY,67 ROAD,,0,0,0,0,,,Failure to Yield Right-of-Way,Unspecified,,,,PASSENGER VEHICLE,PASSENGER VEHICLE,,,
11/30/2016,16:11:00,BRONX,10452.0,40.8353328,-73.92699420000002,"(40.8353328, -73.9269942)",WEST 166 STREET,NELSON AVENUE,,1,0,1,0,,,Failure to Yield Right-of-Way,,,,,PASSENGER VEHICLE,,,,
11/30/2016,16:11:00,BROOKLYN,11207.0,40.68855300000001,-73.9124432,"(40.688553, -73.9124432)",HALSEY STREET,EVERGREEN AVENUE,,1,0,0,0,,,Failure to Yield Right-of-Way,Unspecified,,,,SPORT UTILITY / STATION WAGON,PASSENGER VEHICLE,,,
11/30/2016,17:11:00,STATEN ISLAND,10312.0,40.5304815,-74.1907257,"(40.5304815, -74.1907257)",HUGUENOT AVENUE,BILLIOU STREET,,0,0,0,0,,,Failure to Yield Right-of-Way,Unspecified,,,,PASSENGER VEHICLE,SPORT UTILITY / STATION WAGON,,,
11/30/2016,17:11:00,MANHATTAN,10002.0,40.7129042,-73.9869277,"(40.7129042, -73.9869277)",MADISON STREET,CLINTON STREET,,1,0,1,0,,,Failure to Yield Right-of-Way,,,,,PICK-UP TRUCK,,,,
11/30/2016,17:11:00,MANHATTAN,10016.0,40.7472966,-73.97404399999998,"(40.7472966, -73.974044)",2 AVENUE,EAST 38 STREET,,1,0,1,0,,,Failure to Yield Right-of-Way,,,,,PASSENGER VEHICLE,,,,
11/30/2016,17:11:00,MANHATTAN,10029.0,40.7877532,-73.94746059999999,"(40.7877532, -73.9474606)",3 AVENUE,EAST 100 STREET,,1,0,1,0,,,Failure to Yield Right-of-Way,,,,,SPORT UTILITY / STATION WAGON,,,,
11/30/2016,17:11:00,QUEENS,11417.0,40.6772785,-73.8415215,"(40.6772785, -73.8415215)",96 STREET,SUTTER AVENUE,,1,0,1,0,,,Failure to Yield Right-of-Way,,,,,PASSENGER VEHICLE,,,,
